name,latitude,longitude
ABATE TITTA,38.5866683865009,15.914711610027
ABITUSO,38.7562362077523,16.3565334611271
ACONA,38.6121773861984,16.209858336683
ACONI,38.5964385776708,16.2598317555029
ACQUA FREDDA,38.6139258055896,15.9035027890445
ACQUA RUGIADA,38.4502288102536,16.2703605131317
ACQUABIANCA,38.5366101652374,16.1972212380793
ACQUACALDA,38.6341768911763,16.1625143955697
ACQUAFREDDA,38.6199760316269,16.2822748032002
ACQUANGI,38.780493479688,16.3212128433733
ACQUARO,38.5556853538957,16.1903877675965
ACQUE BIANCHE,38.4888753600787,16.3387210445792
ACQUE MURATE,38.4904177345208,16.3519354079112
"AEROPORTO DI VIBO VALENTIA ""LUIGI RAZZA""",38.6383747274778,16.0442037179255
AGAZZI,38.7869089530209,16.3363100822808
AGRELLI,38.4343028356583,16.3511172921141
AGROMOLARA,38.4620911040829,16.3372973539911
AGUGLIA,38.6439674138761,16.3007767463309
AGUGLIA,38.6639030387391,16.3198604470482
AIA DELLE CHIUSELLE,38.7337702336877,16.2708348741089
AIA DI TUCCIO,38.7278834971673,16.2718809563885
ALAFITA,38.6708240053627,15.9187242841589
ALBANI,38.4523547656644,16.3494140669684
ALENCI,38.6272075484962,16.2485491236373
ALTIPIANO DEL PORO,38.6051349942103,15.9812576912914
AMATO,38.5933663897566,16.0273838672323
AMPINO,38.5598485769831,16.0914774124843
ANGELELLA,38.4730124155001,16.2883219438648
ANGIOLELLA,38.6644505756437,16.3437888122127
ANGITOLELLA,38.7225438839239,16.3353518492053
ANGRI,38.6709727047696,16.2772298301561
ANICITO,38.6403058192343,15.979301213089
ANNIBALE,38.5402843923327,16.2483642775516
ARAMONI,38.6263796938769,15.9468422145583
ARCIDIACONO,38.7688753880599,16.2047311532929
ARCO,38.6950497854866,16.2413682629315
ARCOLEO,38.5938977100953,16.1766998932816
ARENA,38.5627961612481,16.2096611432952
ARENELLA,38.4913931753746,16.2654531986126
ARIOLA,38.5685298200635,16.2556481493505
ARMO,38.6634676817531,16.1438853735897
ARRUGGIATO,38.5114374106666,16.2585439174647
ARTESE,38.6099000466652,15.9170853681748
ARVO,38.5945633100166,16.3417842756442
ARZONA,38.621300167945,16.0439330867849
ASCUTO,38.5977064682796,16.2398388997186
ASMONIO,38.6072007625552,16.1447026119365
ATTESIA,38.5594373405507,16.2739793318534
AZIENDA BRACHO,38.53110075566,15.9729660593755
B. DI PRATTARI,38.71913443462,16.2659861089676
B. DOMITO,38.4600873392393,16.3772367093698
B.NE DELLE TINE,38.5862802225072,16.3699196668551
B.NE ZINZOLO,38.7034003644512,15.9744456398541
BACOLOPANE,38.8049656232205,16.2858722616407
BADIA,38.5649890564753,15.9571698450359
BADILE,38.610497961778,16.197035646559
BAGNERIA,38.6593696243968,15.8607554732033
BANDIERA,38.6091733432723,16.3032950396855
BANDINO,38.6097299323561,15.9984217900078
BARBALACONI,38.6346438385023,15.8726153656394
BARILLA,38.5647474354158,15.9722718008617
BARONE,38.6442198567675,16.2308156858006
BARONIA,38.605976758179,15.8918494855337
BARONIA,38.7139001357443,16.0740677871148
BATIA,38.6924908379702,16.3074847258271
BATTIFOGLIO,38.6634765700033,16.1073815116934
BAUSA,38.6968683444681,15.9988502119991
BELLARDINA,38.5065076025018,16.2408538243512
BELLINO,38.5607648961889,16.3367483365402
BELUSCIA,38.6598768655074,15.8542563174488
BENEFICIO,38.6375379138149,16.1106014612885
BERIGLIANA,38.4798088735945,16.2898071801311
BETTARELLA,38.6933759175886,16.0468081864305
BEVILACQUA,38.8212954321479,16.2947014415961
BIVIO CESSANITI,38.6436390643182,16.0440273234696
BIVIO IANNI,38.5213391979949,15.9946298440102
BIVIO S. MARCO,38.6672390599916,16.0175880655399
BIVONA,38.7101207867918,16.1015681152676
BOCCA D'ASSI,38.5717682911422,16.403678680012
BOMBULERO,38.5686874974989,16.1444700249085
BONDANZA,38.6160657138136,16.2429689884585
BONI,38.7871818482598,16.2514499597595
BONIFICIO,38.5626326081792,16.0481569046635
BORDILA,38.6928407555628,15.9545478747665
BORDILA,38.6897291381767,15.9471132800269
BORG.A DI PORTO SALVO,38.7054310859352,16.0836474525351
BOSCO ARCHIFORO,38.537860593074,16.3482796159497
BOSCO BIANCHI,38.7999262919482,16.2990935361463
BOSCO DELLA CASTAGNARA,38.801287768182,16.2426913974104
BOSCO DELLE CENTO FONTANE,38.6843656540533,16.2646028663621
BOSCO DI MONTE CUCCO,38.6594978827729,16.3348237545197
BOSCO DI S. GIOVANNI,38.6327182507533,16.1803903042776
BOSCO DI S. MARIA,38.5512257061697,16.3076760666921
BOSCO FIEGO,38.6013412423741,16.2480203977443
BOSCO LACINA,38.569580520223,16.4199469651847
BOSCO MILETO,38.529013060734,16.0119440465091
BOSCO REGGIO,38.5098238827427,16.2159424511053
BOSCO REGGIO,38.5737939662709,16.411328755876
BOSCO RUSSIA,38.8143731795343,16.2891512217363
BOSCO SCALA,38.6777954779728,16.2563251607315
BRATTIRO,38.6437526195873,15.8872616165125
BRIATICO,38.7257107071405,16.0324400349289
BRIATICO VECCHIO,38.7068096082389,16.0226455370594
BRIGA,38.5684968613704,16.1061860344948
BRIGLIA,38.6073258318968,15.981138227809
BRIVADI,38.6368882647787,15.8566949349794
BROGNATURO,38.6025475118014,16.3409912857703
BRUNELLO,38.5956663938931,16.3578690551391
BRUNIA,38.6806371283632,16.0393452739199
BRUNIA,38.664397911497,16.1362797594401
BRUNO GRILLO,38.5113039844881,16.303684804863
BRUVIERE,38.7378459398363,16.2984742198091
BUFFALARIANA,38.76191412738,16.2138791564872
BUNDA,38.6386369768428,16.2750126557766
BUTTINA,38.6093307203052,16.2634797121273
ACERO C.,38.4696737463024,16.3835171723454
ADENCI C.,38.7047426538105,16.1976279994511
AGRILLUSA C.,38.6426270414852,15.9743574220163
AIA BISSATA C.,38.5991667696259,15.9663970769322
ALENTA C.,38.7148708185895,16.1985676347296
ALIVARI C.,38.6167531145958,15.9526540988728
ANELLO C.,38.7677301534805,16.2777678589575
ANGRO C.,38.6173533346902,16.2472985476818
ARCINA C.,38.5999614942553,16.2404863225242
C. AREA DEL BARONE,38.5383645117571,16.0070380410978
C. ARIA,38.7906454261029,16.231637358424
C. BARATTA,38.7046855417723,16.2145208822861
C. BARBIERI,38.7037864529261,16.1601906917288
C. BARBIERI ( DIR.),38.5455003438003,15.9795975534375
C. BARDO,38.615438546182,16.2485518066348
C. BARONE,38.585518862012,16.0075011442837
C. BARONE,38.5805245245842,16.0376252148932
C. BARONE,38.6869587240739,16.1385336178148
C. BARONELLO PICCOLO,38.5985164219918,16.0196715266644
C. BELVEDERE,38.5599020085727,15.9354216948401
C. BEVIVINO,38.74564965606,16.1830300945349
C. BIANCA,38.5631974141759,15.9210137796941
C. BIZZURRO,38.6212323380758,15.9625118454982
C. BOGGIANO,38.4684096996232,16.355983216269
C. BRAGHO,38.5830491984791,16.0344124383591
C. BRAGO,38.6419980460877,16.0039826024836
C. BRANCOLINO,38.5509562081866,15.9983543070465
C. BRENI,38.6738906834796,16.1414533017143
C. BROSIO,38.5635068643724,15.9554858883532
C. BROSIO,38.5498487527436,16.037620225236
C. BRUNIA,38.6517972900247,16.0376413108384
C. CACURI,38.5787352104262,16.0482990628688
C. CAGGIOLA,38.7116885470437,16.1836547249888
C. CALIFANO,38.6588552836924,16.063510519236
C. CALOGERO,38.5606847830954,15.954553280477
C. CAMIDA,38.6028217634913,16.2753547357433
C. CANESCI,38.6885928749693,16.2091437766203
C. CANT.RA,38.6702761672455,16.0827953927961
C. CAPIALBI,38.6765908998269,16.1165847950327
C. CAPIALTRI,38.6720243261755,16.1406305014938
C. CAPITOLO,38.5384628692682,16.0018761686588
C. CAPOCANALI,38.6750399405655,16.3063164990683
C. CAPPELLANO GRECO,38.609241808901,16.2338125837024
C. CAPPO,38.666476140572,16.033680734519
C. CAPPUCCINI,38.594172657362,16.0740840323286
C. CARNAVALI,38.7081658571702,16.2460228557445
C. CARRIERI,38.7515665534709,16.1975354814606
C. CARUSO,38.629146771274,15.9677069968769
C. CASTAGNA,38.5345604608793,16.0123889042241
C. CASTELLANA,38.6926576044946,16.2169045670135
C. CECATO,38.6215637393526,16.3368655355471
C. CERASO,38.6273405568501,16.0252952222807
C. CHIANETTA,38.6016518965566,15.9688305531796
C. CHIANTI,38.6360993898632,16.0066692606211
C. CHIODO,38.6558192344625,16.0484448720305
C. CHIUSELLA,38.6496519846463,16.0151098561256
C. CHIUSI,38.6091677986448,16.0432289306472
C. CICCIA,38.70248547579,16.1523267213109
C. CILIBERTI,38.7195557755261,16.1419493546194
C. CIMERATO,38.6322868260224,16.2936265245956
C. CIPRIANI,38.5287294660889,15.9544980399762
C. COCARI,38.6970895535631,16.1252977997572
C. COCUMELI,38.688496884694,16.2914419306708
C. COLA MATTEO,38.6362927281031,16.2534517914743
C. COLERICO,38.5955789693571,16.0681223937921
C. COLLA,38.4825099900696,16.3374224093511
C. COLLOCA,38.5686735265112,16.0538347670405
C. CONICI,38.6666676313955,16.0002580503968
C. CONIDI,38.7577719311217,16.283597778446
C. CONTARTESI,38.5424573045647,15.9792464583813
C. CORAGLIONI,38.6236157535549,16.001715923023
C. CORSARO,38.5830245790753,15.9699349773046
C. CORTI,38.5621854976537,16.1065254209796
C. CORTOLANO,38.6093887905759,16.3282096514663
C. CORVO,38.7144571281707,16.1509546777135
C. COTTURA BOSCO,38.7358016327342,16.2179930549181
C. CRICENTI,38.7140556840244,16.2429736504647
C. CRISTOFORO,38.5743417727764,15.9898501095317
C. CROCIFISSO,38.6867844572183,16.226175403231
C. CUCCIA,38.6473488554046,15.952507543699
C. CUGLIARI,38.7021472089689,16.159198212852
C. CUTA,38.749906798337,16.209947341019
C. CUTERI,38.5709239544571,16.3404146414339
C. DESTALI,38.7771818433384,16.2795136323265
C. DI LAZZARO,38.5532865688823,15.9849593342817
C. DONNA LAURA,38.6210719904444,16.0573006389079
C. DRAGA,38.7026577987818,16.1811138358656
C. DRAGO,38.7863250426092,16.2723776468334
C. FALCONE,38.762499587128,16.3130890487608
C. FAZZARI,38.5816089647306,16.0574220737336
C. FERSI,38.569348422798,16.2060863756197
C. FILANDARO,38.7968503106855,16.2405185933198
C. FILICUSA,38.6059956824123,15.9698996122365
C. FINOCCHIO,38.446099622585,16.3743123247841
C. FONTANE,38.6123243829015,16.0399093651996
C. FORCHI,38.6226206857332,15.991581782441
C. FORCONE,38.6491697534,16.0382239480386
C. FORNO,38.7134259780872,16.1739989873758
C. FRACASSO,38.7494686364653,16.1964877746371
C. FRAGALA,38.7424258139717,16.2109716990263
C. FRALLARIO,38.4922558783738,16.3275352294945
C. FRANCIA,38.6187704435651,16.2529859120277
C. FRESCA,38.625446221287,16.0756877218854
C. FROGGIO,38.6753604642548,16.0835732278104
C. GAGLIARDA,38.5418986334958,15.9362785132629
C. GAGLIARDI,38.6623018930244,16.0729172602329
C. GALATI,38.5505050168066,16.0599270476486
C. GALATI,38.5415465120537,16.1543550798263
C. GALIANI,38.6993552964533,16.2742157742255
C. GALLINA,38.7513483308729,16.233251756731
C. GALLONE,38.521231246955,16.2091141525525
C. GALLUPPI,38.6361047776474,15.9421905252959
C. GARISTO,38.5794648543103,16.0702371445913
C. GASPARRO,38.713501920119,16.0927291675767
C. GELBIOLO,38.6671810794128,16.0405645045322
C. GEMELLI,38.770673414435,16.2370492131733
C. GIFFONE,38.5902045829798,15.9459994489268
C. GR.TA DAGADARNE,38.5847578095131,15.9974559036819
C. GRANATURA,38.7015100496264,16.2061528682381
C. GRILLO,38.5823014038657,15.9712914738607
C. GRILLUZZO,38.7337143940891,16.22284717377
C. IANERA,38.6029512625523,16.0236733391638
C. IANNACCI,38.6310964377876,16.0326899414888
C. IMPISU,38.703993178584,16.2273202843269
C. IOZZO,38.6813524424347,16.2986252122963
C. IUDEO,38.6550923290641,16.0690171992814
C. LA COTURA,38.6482115660536,16.3096786520279
C. LA GAMBA,38.5627434325511,15.979165886477
C. LAPA,38.7179178367064,16.0115888789902
C. LAVRISI,38.6524560967575,16.0486486701438
C. LEOPOLDO,38.6186180796735,16.073437727139
C. LIPPO,38.6046056481814,15.9526197909817
C. LORENZO,38.5922121168593,16.0325919106439
C. LUCANIA,38.5866587797423,16.0048878006732
C. MACCARONE,38.5720150401174,16.0111350825239
C. MADAMA,38.7146764416141,15.9859512234269
C. MADDALENA,38.7105566495915,16.2097207300743
C. MALERBA,38.6954281062361,16.2251501094653
C. MANCINO,38.7925818924682,16.2579463405512
C. MANDORLI,38.78295443918,16.2388731960309
C. MANNACIO,38.7756877749283,16.2289741111399
C. MARGI A CURTI,38.612208618477,15.9716027404976
C. MARGIDONGO,38.665350227389,15.9606884465252
C. MARIA,38.7511615006531,16.2261713288082
C. MARINO,38.6328845675871,16.2694995751006
C. MARTA,38.7572731752151,16.2233987476816
C. MARTINO,38.7000059220647,16.2277236019269
C. MASSARA,38.5472667796193,15.9870919349426
C. MASSARA,38.5409135297789,15.9720081973166
C. MASTRA,38.61443781502,16.0474631703285
C. MASTRO,38.6925793538618,16.2122924304662
C. MELIA,38.6578118024984,16.3061758483744
C. MERCANTO,38.7438583059446,16.3287759338119
C. MESIANO,38.6322840567836,16.0028705424433
C. MICAGLIONE,38.4644741701146,16.3298224041932
C. MICHIENZI,38.7969876701403,16.3136872063954
C. MOCI,38.6658074783348,16.0689696221262
C. MOLE,38.7575316680811,16.2373631975429
C. MOLE,38.7512141551897,16.2915586620195
C. MONACELLI,38.664708728389,16.008000740611
C. MONASTALLA,38.6821227576148,16.3247477139816
C. MONTELEONE,38.573988083154,16.01431960892
C. MOTTOLA,38.656950200727,15.9553355074304
C. MUSOLINO,38.7392185030881,16.219569857255
C. MUZZOPAPPA,38.5309686738161,15.9919286567574
C. NAFRA,38.7194560067668,16.281957296929
C. NASO,38.5681511768438,15.9638808812605
C. NEGUS,38.5358712976663,15.9833564547069
C. NERONE,38.7645383807491,16.286964771448
C. NUCILLA,38.4613445103889,16.3683895773552
C. ORTONA,38.7011030724115,16.1089045814836
C. PAGLIANITI,38.569478565679,16.0219929093945
C. PANTANO,38.5442104804796,16.0393063090705
C. PAOLA,38.602965618192,16.0674509679745
C. PARISI,38.7479369486553,16.2515354290548
C. PARMINA,38.5916792757554,15.992097556332
C. PASSAVANTI,38.5925520698004,16.0164065026486
C. PERAINO,38.5918691513011,15.9856241039497
C. PETRACCHI,38.6129343885826,16.2551929642031
C. PETROFOLCO,38.7329281560001,16.2152866538409
C. PETROSE,38.6650294655461,15.9765689786066
C. PETROSO,38.5896888907401,16.0077775804771
C. PICCINNI,38.6547825406581,15.9712467352138
C. PIETRA PIANA,38.7339095188976,16.3288101555585
C. PIETRARI,38.6576963248206,15.9944787525332
C. PIETROGIANELLO,38.4732747946335,16.3807660584717
C. PIETROPAOLO,38.5434781019801,15.9864664067011
C. PIGNATARO,38.6569696679031,16.059781977452
C. PILEGGI,38.6682111773554,16.3173993143784
C. PILLA,38.6714789052967,16.3112864992619
C. PIOPPO,38.6372566018737,16.0371903363452
C. PIOPPO,38.7353517513315,16.2368078010949
C. PIPERNO,38.6725209724718,15.8808803647654
C. PIPIASTRO,38.5981979754334,15.965855848491
C. POGGIANI,38.5478043448046,16.031359734253
C. POLLITRO,38.5412732892894,15.9956845994343
C. PONGADI,38.6136840662922,16.135042769217
C. POVERTALE,38.6342052252751,15.953080369644
C. PRATO,38.8121756533941,16.2931196670047
C. PRENESTINI,38.5772351677931,15.9528551189549
C. PUGLIESE,38.5665887011924,15.9827189725577
C. QUAGLIA,38.6260464610766,15.9545806531895
C. RAPPIUBO,38.5023133852125,16.3290730615142
C. RESTA,38.7142612993259,16.219168610106
C. RIZZA,38.6113932922205,16.2133481847401
C. ROMANO,38.5779666355893,16.0158909435532
C. ROMANO,38.5594981016318,16.0388837168266
C. ROMANO,38.5055637323112,16.331701719608
C. ROSETO,38.7466677430706,16.1919187793152
C. ROVETO,38.5320923020178,15.9609328773195
C. RUGGERI,38.6315853125988,16.3438642810946
C. RUPOLA,38.6656228077234,16.0106801981866
C. RUSSO,38.5484548205643,15.9786851755792
C. S. GIACOMO,38.5912747154686,16.0558415149732
C. S. MARIA,38.5296251559786,15.9823995196206
C. S. ROCCO,38.6770945249178,16.2384024950911
C. S. SEBASTIANO,38.6066797498976,16.0062810161786
C. S. VENERE LIANA,38.5987749958325,16.0585466520388
C. SAIOLA,38.7212296242192,16.1467842235618
C. SALOMONE,38.7621365908305,16.2036970659452
C. SAMBRASE,38.4809116716672,16.3704447762435
C. SAMMARIZIO,38.6326685605731,15.9819776075819
C. SCALI,38.5557400419638,16.0620008465209
C. SCANNAPIECO,38.664320868718,16.0630051768861
C. SCARANO,38.5827203169477,16.07588812284
C. SCARDAMAGLIA,38.5512565952235,15.9884432683392
C. SCENDEMA,38.7276091823068,16.2284375068255
C. SCIORDELLA,38.534204744396,16.0045133063429
C. SCRISI,38.7236920905644,16.1809424163369
C. SCRUGLI,38.713577506322,16.0610429490598
C. SCUOTRAPITI,38.7376193072139,16.2328545107641
C. SCUTERI,38.54440860524,15.9765189593114
C. SERRAO,38.7679812712219,16.2214176781685
C. SERRAO,38.7874533013322,16.2788106980233
C. SERRAO,38.7838017895805,16.2822799107192
C. SERRAO,38.7727731281283,16.2805399202492
C. SERRAO,38.7835620362005,16.3127960667984
C. SETTE AMMUCCIATO,38.4802251976148,16.3527538291044
C. SIMILEO,38.6603078531762,15.9925725011878
C. SOLANO,38.5598686430036,15.9941391782411
C. SOLANO,38.6201621691023,15.9806928072794
C. SPARACELLO,38.7033705924799,16.2127161346695
C. SPATAFORA,38.6334093845853,16.0238076777678
C. SPEZZARO,38.6514393490396,15.8570750675724
C. STAGLIATI,38.5320257171102,15.9766039462442
C. STILLETANO,38.7268716893368,16.2040483740572
C. STILLITANI,38.7542320263645,16.2003534962687
C. STINA,38.526858143072,15.9552190024029
C. SUVARITO,38.6481922294413,15.8574730558521
C. TABACCARO,38.7379296739584,16.1889776563632
C. TIGLIA,38.4424266145494,16.3294749956778
C. TORALDO,38.5591427131225,16.0219268610696
C. TORCHIA,38.7674415414961,16.2502992613224
C. TORRE,38.7473167416693,16.2755627507383
C. TORRE DEL MARCHESE,38.6224906066709,16.1245444815043
TRAINARO C.,38.6133017942873,16.3461647135563
TRE CROCI C.,38.6887070808293,16.2198385237536
TRENTA TARI C.,38.4861602698004,16.3334197134417
TRISCIANO C.,38.6649988088355,15.988798246568
UMBRA C.,38.6049145126767,16.2768158238298
URINO C.,38.6178242833979,16.0024164426504
NATALE C. V.LE,38.6501642099622,16.0090264995962
VACCARELLA C.,38.584733843221,16.056664218223
VALENTE C.,38.5826587296517,16.0539358044675
VARANO C.,38.7571023466124,16.2747932354238
VARCARO C.,38.6986243244141,16.223698243165
VARILLARO C.,38.4640183818369,16.3608753683228
VASCA C.,38.7020600780151,16.2165579304585
VERDERAME C.,38.7295341542819,16.2158388663935
VINA C.,38.7437393492706,16.1980605874053
VINDO C.,38.696901616827,16.2082487637946
ZU PEPPE C.,38.4572590372274,16.3484625156863
C.LA BELLARDINA,38.511499261928,16.2744874010881
C.LA DEL MONACO,38.5759766582567,16.2942229745717
C.LE D'ARENA,38.55415397217,16.2824702093902
C.LE PIANE,38.6447554712395,16.0360344479157
C.LE UMBRA,38.6045892539914,16.2834823533227
C.LE VARATTA,38.5937931964646,16.3063123216567
C.SE ABATE MICHELE,38.5927684948725,15.9598236477232
C.SE BEVILACQUA,38.7408851944516,16.1854482864823
C.SE BUFALORIO,38.6956088795645,16.3330110343439
C.SE COTURA,38.6686891557581,16.0051714007509
C.SE CUCCHE,38.5318734630576,16.2282106525574
C.SE D'ACQUINO,38.6284208765768,15.9606549513519
C.SE GALATI,38.5252825818143,16.2155831000968
C.SE GALLINARO,38.6263284696695,15.9921727789227
C.SE LA MENTA,38.6715862979078,16.1430374972491
C.SE MASSITELLI,38.5384595450706,15.974510900517
C.SE MODULE,38.7165552499918,16.0655613544685
C.SE MONGIO,38.6764244980227,16.1605190187187
C.SE NUOVE,38.7153701483236,16.2904876950316
C.SE PAGLIARONE,38.6352184370247,16.0168364428757
C.SE PALERMI,38.7884412790239,16.3228102595811
C.SE PATA,38.5797052974966,15.9917950388135
C.SE PIME,38.7307685160154,16.2071624605197
C.SE PIPIOLO,38.6569905394845,16.0291886240556
C.SE PISANI,38.7075426183703,16.0735701260466
C.SE S. BASILE,38.6782954007114,16.1425694092681
C.SE S. NICOLO,38.6024480342557,15.9889269131284
C.SE SORBILLI,38.5664468443722,15.9770582163709
C.SE TANTIGHI,38.5374816639429,16.239045235018
CACCIAFORA,38.6362967507921,16.0726788110924
CACCIO,38.6545838080971,16.0957292824656
CAFAROTTO,38.6246532041033,16.2615315134888
CAFONE,38.6352819869172,16.2451505575745
CAGLIOPE,38.6459115361185,15.8526425909181
CALABRO,38.6101634742457,16.0795022659365
CALABRO,38.6116609053694,16.0754243947506
CALAMACI,38.5559372696256,15.9205883038514
CALATE DI SOTTO,38.7007347760727,15.9731444860831
CALCARI,38.6530631281402,16.269315561454
CALCINARA,38.603097849527,16.2068463453836
CALDARARO,38.6320740970665,16.0604033510705
CALIFANI,38.599357216432,16.0737708646372
CALIMERA,38.5561940227943,16.0190388917645
CALLIA,38.6153423544882,15.8736104890653
CALOREA,38.5623719546684,16.1106257801224
CAMALE,38.6490203591481,16.0316831459509
CAMMARA,38.5233082945159,16.1848871083601
CAMMERI,38.5722084608506,16.2291497049574
CAMPANARO,38.5507630537033,15.9633273441762
CAMPANARO,38.7537260826504,16.2843999144353
CAMPIA,38.6130383751226,15.8536660778622
CAMPO,38.6713323748846,15.9857817001248
CAMPO,38.7026353828353,16.0341321310088
CAMPO,38.7840810730944,16.2607557610364
CAMPOLONGA,38.7565572414264,16.233214809848
CAN.LE IONA,38.7094081276818,15.9801857730749
CANACELLA,38.65657437125,15.973592464598
CANALE SPEZIALE,38.8115250217784,16.2272977896685
CANALICCHIA,38.6201801101707,16.209809001424
CANCELLO,38.6267764364495,15.8406406653563
CANDELORO,38.5708345772099,16.1181255370877
CANICI,38.6689317553275,15.9947146343049
CANNA MARIA,38.5919279711613,15.9288558266973
CANNALI DI GRIAMI,38.4505821561504,16.3294756764973
CANNAZZI,38.5641115080913,16.1850289096928
CANNELLA,38.5910915572142,16.3396299311159
CANNELLA,38.8099406588388,16.2988262643606
CANNETO,38.6179650449807,16.2633555225264
CANNOLO,38.5587013533966,16.0849870195891
CANT.RA,38.7285648456896,16.2530149676649
CAPISTRANO,38.6921284910102,16.2898055077796
CAPPELLANO,38.5547595551258,16.0950614201383
CAPPETELLI,38.6465163671585,16.1281833923806
CAPRELLI,38.6338047729244,16.0820052077084
CARABUSERE,38.6125371482286,16.3054921907581
CARACCIOLO,38.577986438831,16.0830269996921
CARCARELLO,38.6871606530026,16.1674069644059
CARCIADI,38.6260641927464,15.9070440300082
CARCORANTE,38.7635607350932,16.2600837687588
CARDILLA,38.655298499824,16.2279023520982
CARDILLO,38.6570477076076,15.9068600403519
CAREDA,38.6602484617772,15.9296112696025
CAREDONTI,38.5636681049671,16.0974118265474
CARIA,38.6461971399964,15.9034367909166
CARIGLIO,38.6478257764086,16.2653161751809
CARIOLA,38.6589865244861,16.1441358872175
CARONI,38.5677990510283,15.9606736547472
CARONITI,38.5936213153312,15.9048098688639
CARPENZANO,38.6814262997987,16.0628328253611
CARPITA,38.6886411552072,16.0641928278931
CARRA,38.651526987581,16.0657005237684
CARRA,38.6297408778096,16.2176667917413
CARRA,38.7133210819846,16.2046836152925
CARRATELLO,38.5594903772015,15.9845160480765
CARRERI,38.6419892381003,16.1331911007933
CARRICELLA,38.6106452562502,16.2957185352891
CARRIERE,38.6229458009963,16.0974876503902
CARROMONACO,38.6542437575244,16.2054172003556
CARRUCCIO,38.6784527327804,15.9249608125937
CARRUCCIO,38.6549133747664,16.2112549996976
CARUSO,38.6274929531733,15.9780240371934
CAS.MA DEL FAGGIO DEL RE,38.5078438615005,16.2516230220077
CAS.MA DI IOCA,38.5361721998346,16.2452527717904
CAS.MA DI LATRO,38.5439381009245,16.2689438860132
CAS.MA DI PIETRATONDA,38.5164082505447,16.2487776144791
CAS.O CORSI,38.5870331200575,15.9723081930019
CAS.O DI FRANCIA,38.6433001464706,16.0139171386677
CAS.O DI MUTARI,38.626205726522,16.1392034330766
CAS.O DONATO,38.7296004957934,16.2589462073383
CAS.O FRAZIO,38.7284169972394,16.2650685597838
CAS.O MORTELLETO,38.5233110341971,15.9358081955717
CAS.O MORTILLA,38.7323988461391,16.2601688016941
CAS.O PESCIA,38.7270407201224,16.2640089481396
CAS.O SANTO LIA,38.7042124461412,16.2955311249668
CASAZZA,38.5522390533523,15.9547629180985
CASELELLO,38.5870503695851,16.0394987769103
CASELELLO LUPARO,38.5901259869314,16.0422414121824
CASETTA,38.4467637746023,16.2757542851848
CASIMBADI,38.5889287769888,15.9859283591207
CASSARI,38.442313485107,16.2945135032249
CASTAGNARA,38.6685921516025,16.0122392349188
CASTAGNARA,38.6302091548029,16.0382491171343
CASTAGNERELLA,38.6080881602214,16.101062757789
CASTAGNETO DI ALU,38.5580989693266,16.2081248482816
CASTEGGHIA,38.5812664571221,16.2290170838695
CASTEL MONARDO,38.7765126450238,16.3162354202616
CASTELLACE,38.7318301229259,16.2948909342929
CASTELLANO,38.7438841086498,16.2927268123409
CASTELLANO,38.7672505151331,16.275480281991
CASTELLO,38.7095802402551,16.0880805164406
CASTELLUCCIO,38.4998197884881,16.3216765995842
CASTIGLIONE,38.6405832996832,16.3125041741517
CATTARINELLA,38.5420725509916,16.317894404562
CATTIVA,38.5690505608272,16.073824676945
CAUSOLI,38.6621111417496,16.1957222197126
CAUZO,38.6172973485454,15.9719470651769
CAVA,38.457181975077,16.3744767502672
CAVA PRISA,38.5887701437369,16.2403970492616
CEFALA,38.6608719935215,16.037634334955
CEFALA,38.6087546725284,16.0621043317135
CELIA,38.7508570761557,16.314693896118
CELIA (SEDE COM.LE),38.7503637177695,16.3128896831019
CELLIA,38.4694826742813,16.3059689423444
CENSI,38.5983810920521,16.0789812456585
CEPARI,38.6033294871321,16.0808239019814
CERALUPO,38.6096752097358,16.091336134488
CERASA,38.6237724897099,16.0272891748591
CERASARA,38.5761951005197,15.9433015640412
CERASARA,38.7857928727051,16.3588549512109
CERASO,38.6381872996863,15.9663923314663
CERESARA,38.6350432435291,16.2548431807019
CERESARA,38.7212725072316,16.2439383807045
CERONTA,38.6969836358847,16.0209762039592
CERVO,38.445140119077,16.337305288328
CESSANITI,38.6636448386592,16.0267092587034
CETRARA,38.7731118251027,16.2441822219622
CHIANCA,38.5959796380817,15.9572597551208
CHIANO,38.5616716485083,15.9372580976785
CHIARASERELLA,38.5995284144798,16.2691069157707
CHIARELLO,38.678648847397,15.9816054585345
CHIARELLO,38.6692142311674,16.0679397840878
CHIESOLA,38.5534987896247,15.969251193098
CHIESOLA,38.6172439814157,16.1634470586321
CHIESULA,38.7141886361696,15.9998848639383
CHIUPPARELLI,38.6475719746195,16.0616200055046
CHIUSA,38.6251961405327,16.0842307799407
CHIUSA,38.710443742202,16.2975642752324
CHIUSE,38.6836795089957,16.2206269136429
CHIUSELLE,38.6812772107497,16.3029579904906
CHIUSI,38.7871661994497,16.3063916547887
CIANO,38.5768670060232,16.2127785537732
CIARAMITI,38.6506095758978,15.8620756282956
CIARANO,38.6529412766986,16.2137270289828
CIARASARA,38.6886547256769,16.3072424298142
CIARASARELLE,38.6838129660339,16.3163172565193
CIARASI,38.5708456298774,16.1677490306204
CIDONIO,38.7712422749997,16.2292546576094
CIFARO,38.7318837819344,16.2324107709686
CIMAURO,38.6054260428107,16.3655866284123
CIPOLLATA,38.596902739001,16.1463188947674
CIPOLLINA,38.5886288611504,16.249442154776
CIRELLO,38.5668924621304,15.9689834427725
CIRICIGGHIA,38.5661489035731,15.9135216612522
CISTERNA,38.5670373696893,16.0423210044991
CIVANO,38.592298779494,15.9489090363651
COCCIOLISE,38.5822919243534,15.9460448835211
COCCORINELLO,38.6084855683164,15.8734584228004
COCCORINO,38.6044188881686,15.8725707551466
COCCUMELLA,38.5607325690307,16.0358485028487
COCOMERARA,38.6912983647594,15.9733040790561
COCUZZA,38.4690942506653,16.3411405761866
COLA FRIZZI,38.731441763165,16.321539664734
COLACCHIO,38.5100144644803,16.2432766607035
COLACI,38.5934751952169,16.2101758687096
COLACISSE,38.6132031484837,15.8764789820947
COLACOTRONE,38.6718298675074,15.9282896525833
COLAMANDALI,38.569798618354,15.9077365796568
COLARE,38.705016124581,16.3155559510923
COLARIZZI,38.6181203399828,15.9373490543689
COLATI,38.5977622706402,15.9351779699109
COLLA,38.6223550382852,16.3115400290413
COLLA DELLA MONACA,38.4980218457205,16.3473874893254
COLLA DI GUAGLIO,38.4516459159564,16.3670259956267
COLLE MORRONE,38.5976828403468,16.3049933822207
COLLETTORE ANGITOLA,38.7754925543828,16.203576200309
COLLETTORE RAVELLO,38.5298344421505,15.9415716047494
COLONNA,38.7223743853889,16.24031102546
COLTURELLA,38.7333424991991,16.2444238342603
COMERCI,38.5599663544328,15.948701813949
COMERCONI,38.585829214479,15.9342424289857
COMERCONI,38.5830878818387,15.9333343515997
COMMESSARIA,38.6526482339994,16.0887701172651
COMPARNI,38.5688127412443,16.057383706828
COMUNELLA,38.5886601131035,16.2616476797186
CONA DEL ROSARIO,38.6685467884947,16.2897155831938
CONCA,38.6277309732457,16.1700153202677
CONIDONI,38.6985197465319,16.0348548147
CONSOLE,38.6046762694638,16.1549179741967
CONT.A ZIO PA,38.7764645452459,16.2559248644596
CONTARELLA,38.716915496316,15.9843831562459
CONTATO,38.5946028945562,16.3176832201998
CONTORE,38.6271880087221,15.8838407646744
CONTR.A  COLASANZIO,38.5783655426199,16.0083196197119
CONTR.A BARONA,38.5480982970328,15.9931967507727
CONTR.A BARONIA,38.5610459306063,16.1807319580934
CONTR.A BARONIO,38.5248365770619,15.993473454245
CONTR.A BUFALO,38.6820531004008,16.2874172741441
CONTR.A CABBANO,38.7168073403884,16.198657491145
CONTR.A CALO,38.5433161803137,15.9615182608862
CONTR.A CARCARA,38.5686237298967,15.9345016857667
CONTR.A CARDINOSA,38.5541251887093,15.9870365262013
CONTR.A CARRA,38.5538673811583,16.1587179606881
CONTR.A CASETTE,38.7078457627074,16.1067775780369
CONTR.A CERASARA,38.5715665566621,16.1017562750684
CONTR.A CERASARA,38.7873010014458,16.3422007323521
CONTR.A CESA,38.5600339877818,16.1223768930732
CONTR.A CIARASARELLE,38.522943288258,16.1790881384841
CONTR.A COCARI,38.6902135698101,16.1225110357611
CONTR.A COLAFIORE,38.7021825960242,16.1473884121221
CONTR.A COLISSA,38.539192345052,15.9610847114221
CONTR.A CONTURA,38.6657092180994,15.9043600956199
CONTR.A CORVA,38.5309240823874,16.1650383416543
CONTR.A COTURA,38.4894141890691,16.2907236940568
CONTR.A CROCE DELL'ABATE,38.4880586589971,16.2646381388653
CONTR.A DEL FERRO,38.5383232750173,16.3370097647984
CONTR.A FALCONE,38.7140384142792,16.1586771547539
CONTR.A FARNETO,38.6904707814866,16.1752104042849
CONTR.A FEGU,38.6748081565823,16.182437779929
CONTR.A FELLARO,38.7085525818181,16.2578753980503
CONTR.A FERRARO,38.7159370790776,16.3228068255177
CONTR.A FERROVIA,38.6720815242492,15.8971982555444
CONTR.A FINOCCHIO,38.5559475136524,16.1076807233479
CONTR.A FOCE,38.5092868663943,15.9303737022929
CONTR.A FORCA,38.5124927714748,16.2105851785077
CONTR.A GIGLIO,38.6954874807376,16.1941504887733
CONTR.A GRANCITE,38.5556456589757,16.1710951913879
CONTR.A GRILLO,38.5525664181174,16.1425503537256
CONTR.A GROTTICELLE,38.7204400369699,16.1601378591494
CONTR.A IL CASINO,38.5811617161569,16.1303402501541
CONTR.A IL PASSO,38.7080753218955,16.1683910830107
CONTR.A LA CHIUSA,38.543353514181,16.1493007523421
CONTR.A LA CROCE,38.5123811253124,16.1924843415798
CONTR.A LA FOSSA,38.5027030971762,16.3169127791809
CONTR.A LA GRIA,38.6976957284302,16.170039037442
CONTR.A LA PETRARA,38.700919268209,16.172092507589
CONTR.A LAPPARNI,38.5717756907896,16.1970011531449
CONTR.A LESTA,38.5653245178946,16.1574671890521
CONTR.A LIBANIO,38.6959857885598,16.1078251505669
CONTR.A LISERA,38.6584755420117,16.0929728132476
CONTR.A LUZZI,38.5344504965793,15.9689381703592
CONTR.A MACREA,38.5577074984765,15.9768136445143
CONTR.A MADONNA,38.5630097380139,15.9871580457511
CONTR.A MALASPINA,38.519162086705,16.1634033966252
CONTR.A MAMONE,38.6365968156471,15.9107844900541
CONTR.A MANCUSO,38.6753113309532,16.1682375558802
CONTR.A MARGHERITA,38.5289198758686,15.9465845989928
CONTR.A MARTINELLI,38.682526478831,16.1793112316253
CONTR.A MASSAROTTA,38.5724574597314,15.9952654355014
CONTR.A MATTA,38.5616671019476,15.980712232796
CONTR.A MAZZOTTA,38.7350554311185,16.1800480467672
CONTR.A MELANDA,38.5342525693432,16.151966830053
CONTR.A MONACO,38.7681154231751,16.3407016000222
CONTR.A MONTE,38.5692518996132,15.9211943797313
CONTR.A PANTONE,38.5454737372078,16.1136131921862
CONTR.A PATRAVA,38.5729209909203,16.1602293027469
CONTR.A PERAINO,38.5689086256569,15.9550294046615
CONTR.A PERSICARA,38.6842978896093,16.1947807545981
CONTR.A PETRIGNANO,38.5491487441629,16.1728488083274
CONTR.A PICCOLA VALLE,38.7103963225994,16.1723852699826
CONTR.A PIETRE BIANCHE,38.6255062837986,16.3325160834825
CONTR.A PIETRO PAPA,38.6860741181739,16.1515690361973
CONTR.A PITA,38.6487638494928,15.8847837909798
CONTR.A PORTO SALVO,38.7120682769468,16.0821604486901
CONTR.A PRANGI,38.7398684716433,16.175478876274
CONTR.A PRONIA,38.5765846278908,16.1902504993414
CONTR.A QUARTARA,38.507422148018,16.1891912843177
CONTR.A RICCIA,38.7500639755326,16.2953353846506
CONTR.A ROMANO,38.5597977250524,15.971459086942
CONTR.A ROZZO,38.766771058764,16.3194748801388
CONTR.A S. ANNA,38.6907379272433,16.1091124751115
CONTR.A S. GIOVANNI,38.7156295872484,16.146269150061
CONTR.A S. MARIA,38.5405575293698,16.1421767391039
CONTR.A S. ROCCO,38.5570688549301,15.9938022135368
CONTR.A SALINELLA,38.7800648528255,16.3319803663837
CONTR.A SARDARO,38.5337321069046,16.1726213817285
CONTR.A SCADENZA,38.579165778163,15.9895259876697
CONTR.A SCOPPO,38.5356117981462,15.9437121377433
CONTR.A SILICA,38.6875411126222,16.0887353971583
CONTR.A STELLA,38.4959973182034,16.2984551683866
CONTR.A STRETTO DI MAZZOLA,38.6928571171964,16.1545753810023
CONTR.A SURIANI,38.7117674284147,16.1357296677001
CONTR.A TRENTACAPILLI,38.7335783222748,16.1728101749395
CONTR.A UMBRO,38.5747907032809,16.1515808584633
CONTR.A VACCARIZZU,38.7047808522523,16.1544106170752
CONTR.A VACCARO,38.6987328318761,16.0878241280304
CONTR.A VATICANO,38.6197937616511,15.8404442767999
CONTR.A VIBO MARINA,38.710097192781,16.1192335676816
CONTR.A VIGNI PERSI,38.6778123285397,16.1568742183784
CONTR.A VINCI,38.722786861991,16.1705976787954
CONTRADA BRACCIARA,38.5624869566851,16.1673382822536
CONTRADA MONTALTO,38.5255844686799,15.9785015091797
CONTURA,38.6303014278143,15.914921137616
CONTURA,38.648056075515,15.851438422963
CONTURA,38.6223813728703,15.8771076223837
CONTURA,38.5552480297379,15.9493398651488
CONTURA,38.6826108749403,16.0011008025074
CONTURA,38.6789526596998,15.9851274753065
CONTURA,38.6861658579966,15.9307398740729
CONTURA,38.6849672770853,16.0727612971029
CONTURA DEL BOSCO,38.6742335497578,15.9985930304815
CONTURA GRANDE,38.5533205195773,16.0525088629272
CONTURA LA NUCARA,38.687663400811,16.0497373166318
CONTURELLA,38.6126474440449,15.9444219559811
CONTURI,38.5403843013183,16.1246989877684
CONV.TO S. ANTONIO,38.6015180718838,16.0060481543733
CONVENTO,38.6768239194122,15.8921877147466
CONVENTO,38.6318087218175,16.2539481242116
CORAZZO,38.7204329196348,16.2097376992887
CORDARO,38.7089830930263,16.20415076715
CORDO,38.5827829319943,16.1698596274702
CORDOLA,38.607994835435,16.1610581272736
CORINTI,38.6017615832425,15.9137432871916
CORRADELLO,38.5928335035221,16.1821481310438
CORSORE,38.4843125093864,16.3515347020717
CORVO,38.6206095104224,16.2453217976201
COST.NE ARMO,38.6421223684532,16.0249772674239
COSTA DI BORDILA,38.6962020333254,15.9644357600018
COSTA DI DANDO,38.6755119846704,16.0601588225747
COSTA PECORARO,38.6855832119271,16.060560371467
COSTE S. GIOVANNI,38.6706143535754,15.9725181579912
CR.E DI SERA,38.7479457205134,16.3083346197662
CR.STA DEL CAPUTO,38.6710117458734,16.0625293746302
CRAMATIA,38.7096970697839,16.0596629509058
CRANATERA,38.5527806148898,16.0198399359018
CREA,38.6291610993363,16.2630005732519
CRESCIUOLO,38.5956262672578,15.9158357936561
CRESTA BASILICA,38.7202663308139,16.1846474261507
CRETA,38.7308339445003,16.2830809971312
CRETARO,38.6587339680044,16.2912979536774
CRISTA DI GALLO,38.6377031776881,15.9562174295061
CRISURI,38.6768313717641,16.2943245880861
CROCE,38.7728803708389,16.2937105350108
CROCE DI PIETRA,38.6152621260288,15.9995896571103
CROCE DI POTAMI,38.5800701272141,16.208906156237
CROCE FERRATA,38.5868679436067,16.29699029469
CROCEVIA,38.5727339943124,15.9828026896082
CUCCHIARA,38.4953735783632,16.2446876426782
CUCCIA,38.666217547044,16.1261017265142
CUCCO,38.6850168673167,15.9958340941482
CUCCURATA,38.6141900598747,16.0845474818498
CUNTURA,38.6114770189597,16.1171711660647
CUNTURE,38.6164050768575,15.9252775577064
CURATOLA,38.6046115259688,15.9260678102568
CURINGOTI,38.8022516739328,16.3055155236525
CURTAGLI,38.649029999625,15.9585168918453
CURTAGLIE,38.6726054336152,16.0263544477931
CURTI CASTELLANO,38.7640481000222,16.2724882876949
CUTALLE,38.6488678428835,16.1131895560168
CUTURA,38.5861982078495,16.2106277706093
D'EDERA,38.4520725196354,16.3566858124482
DAFFINA,38.6808445165002,15.9514568485859
DAFFINA,38.5587666608344,16.105933578171
DAFFINACELLO,38.6770964491795,15.9435784288824
DARACE,38.5442694901046,16.0264898343024
DASA,38.5653740929108,16.1973311004379
DERBARO,38.6244336464244,16.2305347834661
DESTRA DEL MOLINO,38.6524714875431,16.2464019187301
DESTRA DI MIGLIARI,38.6585952771046,16.2297515287048
DI FRANCIA,38.6477102500313,16.0964519441961
DIFESA,38.7543724833576,16.3407781660856
DINAMI,38.528333728606,16.1471918116105
DIVISELLA,38.5887019662096,16.3095152719059
DOMA,38.6661932618676,16.3197415809276
DOMANO,38.6983593379106,16.3008300994591
DON NIRO,38.6915261616528,16.0195418250097
DONN'ANNA,38.6345497038997,16.2621875081064
DONNA DIANA,38.6278060301324,16.020499829868
DONNA GIULIA,38.6761492454421,15.9937454143173
DONNA VANNA,38.5604611474207,16.0091482702788
DORINCHI,38.7892062472978,16.3355700460924
DRAPIA,38.6652053372025,15.9112272602899
DRIALE,38.699612367826,16.2679761875534
DROLOGO,38.7649859297454,16.2481961325099
DRUCCADI,38.5812696661985,15.8938055441206
ELCE,38.6316869721758,16.1905637531132
F. ALLARO,38.4526868830109,16.3322073968926
F. ALLARO,38.4317738930772,16.3671438076185
F. ANCINALE,38.588215025507,16.3413675838089
F. ANGITOLA,38.7403244631349,16.2386539851143
F. ANGITOLA,38.6995298519621,16.2580967903811
F. ANGITOLA,38.763173239935,16.2201732265584
F. ANGITOLA,38.6973330540511,16.3144377647508
F. DARMITA,38.7224304360039,16.3030839247082
F. MAREPOTAMO,38.6147052245833,16.1891918193308
F. MESIMA,38.5718502985168,16.096491698686
F. MESIMA,38.6590834245728,16.2287485014207
F. MESIMA,38.616243908108,16.1552412919828
F. PORCIUME,38.6278316356789,16.2158194032897
F. RACI,38.6287723278345,15.8947396780401
F. SCORNARI,38.643440889847,16.2354674628145
F.DO S. GIOVANNELLO,38.5766876479748,16.1100770518159
F.NA GALLIZZI,38.677736439542,16.0868164440206
F.NA PERIERA,38.6175690212663,16.2087198810533
F.RA ACQUA BUONA,38.6956847314039,16.2695166542159
F.RA AGRESTARA,38.4784806177044,16.3208511663097
F.RA ALLARO,38.4709118276233,16.319165566632
F.RA CIAPPETTA,38.6736321108142,16.0014815227218
F.RA DELLA FERRIERA,38.4916266681561,16.3242099666267
F.RA DI POLIA,38.7603146523699,16.3005731814753
F.RA FRANCONI,38.6920607778169,16.0557692224375
F.RA MOLINI,38.47806632478,16.2998873951616
F.RA MURRIA,38.7120018882096,16.029643452154
F.RA MURRIA,38.6824580546699,16.0063067423191
F.RA POTAME,38.7163686439163,15.9968096234834
F.RA POTAME,38.6880207204485,15.984837902713
F.RA ROSARIO,38.6021224686831,16.2044298867129
F.RA S. MARIA,38.4926572249298,16.3127166528874
F.RA STORTA,38.492435896745,16.2839092897618
F.RA TRAINITI,38.6755020098448,16.0532842552874
F.SO ACQUA BIANCA,38.5339549949033,16.2230602673191
F.SO ACQUILA,38.6001232408382,16.0388260564667
F.SO AGRILLUSA,38.6494440788639,15.9973754458447
F.SO BATIA,38.6875284399992,16.3144652803189
F.SO BRITTO,38.55912844861,15.9261725081333
F.SO BRITTO,38.5744563615768,15.9465849622346
F.SO CACARIACI,38.6428852040148,16.0696171538004
F.SO CAFUNA,38.6244673374377,15.9165241920828
F.SO CANNALEIO,38.5771677690313,15.9173004052527
F.SO CATARRATTI,38.7332890762119,16.3159479057378
F.SO CATARRATTI,38.7406547098709,16.2897690890483
F.SO CERASIA,38.6729064604544,16.0145760642559
F.SO CERESIA,38.6562207214581,16.0151910762918
F.SO CHIAPPARELLA,38.6354231627549,16.0335792524587
F.SO CIAPPETTA,38.6621369866574,16.0010570379088
F.SO COCCALO,38.7103278670576,16.2091878220122
F.SO COCCARI,38.7010119929632,16.2964738326621
F.SO COLISSA,38.5355063197366,15.9643973801912
F.SO CONTI,38.6971811431065,16.2485459806999
F.SO CORNACCHIA,38.5803230248753,16.2701120211336
F.SO COROVIZZE,38.6307833374189,16.0446105676828
F.SO CUFOSSI,38.5055415783048,16.1853528150362
F.SO DELLA MONACA,38.7126156958613,16.2360018231752
F.SO DELLO SCHIAVO,38.6095333733687,15.9360773011545
F.SO DI CAMPO,38.6038859670319,15.882348995429
F.SO DI CONDO,38.7050713236767,16.265657556711
F.SO DI LATRO,38.543633497994,16.2537233888046
F.SO DI LOLIS,38.5870731783762,15.9078621829567
F.SO DIVISA,38.7251268140903,16.3085510108082
F.SO DONNA MASA,38.6034171231241,16.049416024742
F.SO DONNATICA,38.5635057624805,15.9676868716571
F.SO FARNETO,38.5615970157562,16.0256918176648
F.SO FAVATI,38.6575901807963,15.9974194592627
F.SO FELLARO,38.710835431392,16.2676108849895
F.SO FIEGO,38.6993848370816,16.2327956974283
F.SO GALLINARO,38.6336021322466,16.0004877000681
F.SO GERDO,38.6904769740869,16.0811681818668
F.SO GREMBALI,38.4379935789174,16.3646831633865
F.SO IACOMARI,38.7152689080433,16.2808473252117
F.SO IMMACOLATELLA,38.7216798024062,16.2102878595035
F.SO LA VINA,38.5955534501912,15.9943211641178
F.SO LUCCARI,38.5208927412155,15.9373254830421
F.SO MACIFRISIA,38.718696548349,16.3009456801306
F.SO MALOGNA,38.718142811564,16.260182939804
F.SO MALOPARA,38.6486605832625,15.9866890299383
F.SO MANNELLA,38.5957979814669,16.0265343390847
F.SO MARASERNA,38.6012269691744,15.9312609807234
F.SO MEDICO,38.6451363431162,15.9952818388498
F.SO MERCALI,38.6695157759723,16.2435134288902
F.SO MILETO VECCHIO,38.5897269330229,16.0724447575053
F.SO MONDELLO,38.6397017819405,16.020450201394
F.SO OLMO,38.6697674879603,16.2100684459793
F.SO PALOMBARO,38.6693422809225,15.9283379909079
F.SO PANOLINA,38.5613471886274,16.0558166644841
F.SO PESBACELI,38.5660181457567,16.0271320556018
F.SO PETRICELLA,38.5663194840551,16.2372676887302
F.SO PICCIOLO,38.5687579827753,16.2745571456265
F.SO PORO,38.6472179341584,15.9738795106959
F.SO POTAMI,38.5745744527842,16.2122578664809
F.SO RAN,38.7134907687812,16.2942034058779
F.SO RANCE,38.6918346548716,16.224950830245
F.SO RAPALA CIAPPETTA,38.6452666804654,16.0000753467178
F.SO ROSARELLA,38.5635571724089,16.3337011270393
F.SO RUSSO,38.6091093755277,16.0567690003004
F.SO S. GIOVANNI,38.5382316424606,15.9440332168733
F.SO S. PIETRO,38.5447150613795,15.9435442311462
F.SO SALARO,38.4568615039104,16.3772097472984
F.SO SAMPILLI,38.5726659904125,16.2531373552331
F.SO SCALARI,38.4629892883234,16.3695324304919
F.SO SCIFO,38.5771077800765,15.9429920592475
F.SO SCIFO,38.588744923901,15.9537420710809
F.SO SCUOTRAPITI,38.7191387349596,16.2163528436135
F.SO SGARANO,38.7309624013263,16.2991894003162
F.SO SIGILLO,38.7311933609715,16.2889086551654
F.SO SIRIGO,38.6376244493984,15.993776197748
F.SO TONO,38.6148673117735,16.0254277541719
F.SO TRAIENITI,38.658040439334,16.0398805644347
F.SO TREBBAINNA,38.5319996615551,16.2135163233599
F.SO UMBRITA,38.7371238171693,16.319504394614
F.TE CERAMIDA,38.669126646495,16.099755655602
F.TE LIBANIO,38.693634686404,16.1077313899725
F.TE NUOVA,38.7353038413948,16.1687770698526
F.TE S. FRANCESCO,38.6345394161497,16.1375545287295
F.TE SILICA,38.6882086614022,16.1059460529011
FABRIZIA,38.4840381629254,16.30095772886
FACCIUOLO,38.6927568348356,16.0684277423493
FADICO,38.7227740040265,16.2560541599755
FAGGI LUNGHI,38.435354511898,16.3020082894386
FAGGIO DEL RE,38.4996821081253,16.2505184807485
FAGO,38.5927572636791,16.2602611445276
FALCO,38.7606237610374,16.2304190186247
FALCO,38.7239823425403,16.2890896700807
FALDE DI COMERCONI,38.5890413975999,15.9393705699525
FALDELLA,38.7353911878758,16.3012370031171
FARANGO,38.7444039814055,16.3187869126247
FARINA,38.7528523932342,16.2736589039838
FARNETO,38.5542088556206,16.0327021636669
FARRUGGIO,38.5757952237579,16.0967238676289
FAVAZZINA,38.6162409088589,16.3515146731721
FAVELLO,38.5223061073054,16.3126471508847
FAVELLO,38.7938226368428,16.3392717324056
FAVELLO,38.7951855111947,16.3208738093126
FAVELLONI,38.6822159262002,16.0279288170471
FEDERICO,38.6828162097009,16.3095849664522
FEGHICELLO,38.6891013584587,16.0268315629676
FEGO LENZI,38.6873294865703,16.0305429554029
FELICELLO,38.5914691123229,16.2219802588449
FELLO,38.5551149908951,16.316847192616
FEMMINAMORTA,38.5148551891418,16.3411290416899
FEROCI,38.6822099169274,16.0559118725764
FERRERO,38.7820244032706,16.3036499297499
FERROSO,38.5859705657351,15.9947286173848
FEUDO,38.5465041907923,16.0316395148644
FEUDO D'AQUINO,38.6236074711189,15.9717105916835
FEUDO DI S. GIOVANNELLO,38.590766490658,16.1164252763206
FEUDO PELLICCIA,38.6645234057568,15.958217680896
FEUDO TORALDO,38.6238059459458,15.9596743739962
FIANA DI S. LUCIA,38.659099811676,15.9164367460371
FICARAZZA,38.7877730474041,16.2890749375788
FICARELLA,38.6347592985368,16.0574442395813
FILADELFIA,38.7835978323124,16.2917973617688
FILANDARI,38.6149898661593,16.0309657708768
FILANDARO,38.7962877564052,16.2510219485083
FILAPPELLA,38.5543723912843,15.93271044392
FILATO,38.6453866998252,16.2474167402022
FILATO,38.6795070961473,16.2189120752291
FILATORE,38.7593796393329,16.3589868201019
FILICUNELLI,38.4394647646165,16.3520499453402
FILIPUODE,38.6402334569056,16.2506709494328
FILLA,38.7626441797902,16.2928465987748
FILOGASO,38.6817549993954,16.2279979875585
FINOCCHIARA,38.6688651204985,16.2343295919133
FINOCCHIARO,38.6285040293291,16.1986906020413
FIORINA,38.6374909557971,15.8406968683321
FIORINA,38.6288003887691,16.1512381183286
FITILI,38.6758121945576,15.9317898394683
FIUMARA DELLA RUFFA,38.6420600254206,15.8531255121506
FIUMARA DI BRATTIRO,38.6341372415441,15.9037334709245
FIUMARA DI IOPPOLO,38.5923067868354,15.8941031401835
FIUMARA DI ORTOCARA O DEL PORO,38.6232228082474,15.9359910357181
FIUMARA PERTUSI,38.4573611759226,16.3052346087435
FIUMARA RESCHIA,38.7395681121845,16.2696720020085
FIUMARA RIZZUTA,38.699331441415,16.0388453458051
FIUMARA ROSARIO,38.6029791403012,16.1938215287791
FIUMARA SPADARO,38.6990161252211,16.0317111138384
FIUMARA TRAINITI,38.6977895124491,16.0669732199071
FIUMARELLA DI GUIDO,38.5734772850955,16.3448586011618
FIUMICELLO,38.764022470376,16.2565353927744
FLORIO FELOSI,38.6834604539966,15.9399944447188
FOGGIA,38.6943524233094,16.0534686736273
FONDACO,38.6701030897731,16.1663942073185
FONDACO APOSTOLITI,38.8091419143659,16.2481026326126
FONDO CAMPESI,38.5347256493999,15.9748735610773
FONDO ROSARIO,38.5674089707585,15.9933707072629
FONDO S. STEFANO,38.6489616661774,15.9436459486967
FONDO SCUTERI,38.5506474646434,15.9751114891162
FONT.A IACOLANO,38.7751245277616,16.236239719806
FONT.NA BADIA,38.6938730170528,16.2966553977932
FONT.NA BARONE MORELLI,38.6862259415093,16.1379011478756
FONT.NA BATISSA,38.7262549334856,16.2235252552658
FONT.NA BELVEDERE,38.527646461573,15.9883610876939
FONT.NA BERNARDO,38.6087637969599,16.2449102566185
FONT.NA BIRIERE,38.5353796879578,16.0269715708499
FONT.NA BRAGALLA,38.7724451682221,16.3085173490839
FONT.NA BRIGANTE,38.5812180682117,15.9638947879153
FONT.NA BRISELLA,38.7896283955381,16.292424326806
FONT.NA BRITTO,38.5701899609631,15.9290694606354
FONT.NA CIPOLLAZZO,38.6803464902622,16.2452988402524
FONT.NA CORNO,38.7351498848856,16.2649342207246
FONT.NA DEL CERAMIDO,38.6529759646327,16.3369895706243
FONT.NA DEL FASCIO,38.6735540905956,16.2916216749346
FONT.NA DEL PAPA,38.7360593595042,16.3075769694491
FONT.NA DEL POZZO,38.7222067234399,16.1941004664636
FONT.NA DELLA SIGNORA,38.5238916942343,16.2899857451746
FONT.NA DI CANNELLA,38.6780300332129,16.0477342068295
FONT.NA DI COPPARI,38.7096854914568,16.3170216444404
FONT.NA DI NUZZO,38.8006410405364,16.2424959135999
FONT.NA DI ROSA,38.4922779303114,16.2966111282103
FONT.NA FICARA,38.807496050736,16.2461160704965
FONT.NA GALLINA,38.7631350847786,16.2409128515424
FONT.NA GRANDE,38.7051913565104,16.1720242522484
FONT.NA MADONNELLA,38.7113647565087,16.2417999212217
FONT.NA MALACURUNA,38.6584092436166,16.0510455629772
FONT.NA MANTAMA,38.7336135640703,16.2012853424965
FONT.NA PANAIA,38.6784789912699,16.2335980345209
FONT.NA PASSO MORATO,38.6210762161639,15.9540667648126
FONT.NA PEDUCCHIELLA,38.7456601759045,16.2325900563901
FONT.NA PELLEGRINO,38.5892132332251,16.0323652426279
FONT.NA PIOPPO,38.5332649748359,16.0048100097716
FONT.NA PIZZILLO,38.7169465951139,16.2329248263053
FONT.NA PORCARO,38.6720811517712,16.2513858871168
FONT.NA S. CATERINA,38.6564366098775,15.9995410988614
FONT.NA SAMBUCA,38.626143950415,16.0074375799119
FONT.NA SAMBUCO,38.7463713088675,16.2119819183266
FONT.NA VECCHIA,38.6424376936105,16.0946135645041
FONT.NA VELARDO,38.6084482455454,16.1068336986353
FONT.NA VILANZA,38.6764432473332,16.226665677031
FONT.NA ZUFRO,38.6685612511543,16.2160252471048
FONTANA ROSA,38.6532318676125,16.0704490442953
FONTANE,38.6450813824952,15.9113515259257
FONTANELLA,38.685623439772,16.2363075701607
FONTANELLE,38.5415063705856,15.9436055745145
FONTANELLE,38.6092809887772,16.2214898985551
FONTANELLI,38.5382752379263,15.9868313437685
FONTE PETTI,38.6445808985893,15.916585014565
FORESTA,38.4990806299137,16.308051361357
FORESTA,38.6899841325231,16.3172581876568
FORESTA DEL CASALE,38.4842402690443,16.2965473375142
FORIA,38.5762850551087,16.2373812406727
FORNELLO,38.5881439168753,16.1654343350856
FOSSA,38.5493342613253,16.2362650432703
FOSSATI,38.6070862857016,15.9881866417856
FOSSO CANACI,38.7495463093929,16.2997563537691
FOSSO CERAMIDA,38.7382245596524,16.2258580156688
FOSSO COCEARI,38.7118587330686,16.2729540687238
FOSSO FERRARO,38.7327415783557,16.3077235563689
FOSSO SALICA,38.7240772416977,16.2386379774154
FOSSO SARDELLA,38.5287097981217,16.2604852773212
FRANCAVILLA ANGITOLA,38.7778138634691,16.2703154035097
FRANCICA,38.5719198586156,16.0435394688625
FRANCICA,38.6170674394477,16.0997068099458
FRANCO,38.6272779613772,16.2579588544525
FRANDERATO,38.7964028038738,16.2803293924845
FRANSONI,38.6178883472317,16.012766688834
FRANZONE,38.6431034165716,15.9592422740881
FRASCATOLA,38.4839440489535,16.2726146413107
FRECCIE,38.605595347017,15.9063039262203
FRIA,38.7834506517616,16.2797868548482
FROCCA,38.5471755119765,16.1334799933176
FULLONI PIZZIGNI,38.6738607783393,16.3190432285181
FURCHI,38.6192935778478,15.9907318942449
GACCIO,38.6460542461389,16.2363167004867
GAGIARDO,38.5560669550436,15.9550201334741
GAIO,38.7129528135799,16.2150173270418
GALEFFI,38.5997935650194,16.3200748058684
GALLERIA DI COCCORINO,38.6003332391036,15.8632997716953
GALLETTA,38.5706468600835,15.9983512635153
GALLIA,38.6248478506829,16.2809371361211
GALLINA,38.7649654074933,16.2399662193594
GALLINA,38.6755607794632,16.3185226506538
GALLUZZI,38.7398779922096,16.3237776964685
GAMBINO,38.6417461477287,16.1947517437888
GARAVATI,38.5929392538121,15.9997048645447
GARIONE,38.7276187489953,16.2886488531566
GARRINO,38.6270931328595,15.8904107804682
GASPONI,38.6623316077799,15.9041337121405
GATTA SCORCIATA,38.4693648505384,16.3520923652221
GATTI,38.6130810593774,15.8819332741402
GATTO,38.5583745130866,15.947188867157
GATTO,38.7050955042098,16.0300504091878
GAUCI,38.4320397859375,16.3219865599467
GEBBI,38.56245773638,15.9302209725534
GELSO CADUTO,38.5668132383323,16.1022002056213
GENOVESI,38.6780325643916,16.0544709556268
GEROCARNE,38.5865664976359,16.2185560839276
GIAFFORI,38.6000534468366,16.1168447518189
GIAMMORO,38.6217557017256,15.8630855709408
GIANFELICE,38.5456686593758,16.0374683496247
GIANNARONTI,38.6065368866876,16.3094030001684
GIANVINCENZO,38.4538846745829,16.3835822647116
GIARDINO,38.5203167291189,16.1928446969903
GIGLIOLO,38.7423666798036,16.2304392909553
GIORDANO,38.6329635786661,16.2630328325108
GIRASOLE,38.7582195321846,16.2928588249418
GIRONE DEL PESCIA,38.7255300919398,16.262038234527
GLI ANGELI,38.5934785015972,16.2382849330355
GLI ANGELI,38.6603713950664,16.2676516495875
GLI SCAPOLI,38.4517036585463,16.2904296811505
GODANO,38.6266333277199,15.8529426764288
GONNELLA,38.7873210702143,16.2375326170646
GORNA,38.6869413653669,16.0172347300007
GOSTINELLO,38.4882208902043,16.3462876858812
GR.TA NUCARA,38.6590477825811,16.0421247866967
GRANATA,38.6264708399774,16.1049854890261
GRECO,38.7170671903744,16.1864349657206
GREGORIELLO,38.5130803301835,16.2881182160461
GREGORIELLO,38.4854021932838,16.3095582076422
GRENATARA,38.7596722438382,16.2521317068237
GRIFI,38.4727316697831,16.360179433066
GRIGONELLO,38.5197949900307,16.2798069638974
GRILLIA,38.6186518774268,15.863599734753
GRILLO,38.5773584883798,15.9274053407129
GRIZZINA,38.5359802921481,16.2327321221089
GROTTA DEL PALARO,38.7432506431864,16.279045858743
GUERRIERI,38.6291807797223,16.3647505282333
GUGLIULI,38.6724085205799,16.3063261428566
GURNA,38.6504474656296,16.0585481994355
GURNA,38.7481383426448,16.2110336853955
I CHIANTI,38.6875055465524,16.0671768776818
I CORVI,38.4728420546155,16.3372896140601
I CUGNOLI,38.5633294816865,15.9156667664483
I FAGGI,38.5078881792616,16.3475025418117
I FIGLIOLI,38.6122787918446,15.955420393489
I GURNI,38.515330276915,15.930818533036
I LIMITI,38.4667400404568,16.268529645281
I PENDINI,38.6032278877691,16.2375337566121
I PIANI,38.6684309686036,15.9673965007049
I PRIMI FAGGI,38.4791594665588,16.381520319344
I TRE CASINI,38.6723858118857,16.1633965475422
I TRE VALLONI,38.4947943610105,16.2558921303342
IACO,38.6481238447387,16.1408374773193
IACOLANO,38.7693049067884,16.2386370557003
IACOLIVO,38.6525558055457,15.9404753111278
IANNI,38.5190031999677,16.0043593350457
IARULLO,38.564882436986,16.0644769185644
IEMMA,38.4817833686738,16.3100200861796
IENNARA,38.5860306129948,16.4106497993088
IERESULONE,38.6086466315919,16.0501123918947
IL BOSCHETTO,38.5787357011689,15.9752730353561
IL CAMPO,38.6686865917974,15.8790746830447
IL CAPITANO,38.561838476159,16.1202701462697
IL CASINO,38.653693626351,15.9667155692946
IL CASINO,38.7518535321306,16.2518454865283
IL CASINO,38.6791397352348,16.1746801709789
IL CASINO DEL PRINCIPE,38.4724462436499,16.2979752919128
IL CASTELLO,38.5849620565107,15.9893185002738
IL CASTELLO,38.6708670725226,16.1082195447027
IL CASTELLO,38.5716716468791,16.30374207847
IL CERASO,38.6202814295339,16.322035489064
IL FAGGIO BELLA VISTA,38.507366385964,16.2303517363365
IL FAGGIO DEL RE,38.5040575979898,16.2466834962618
IL FAGGIO DI CERONTE,38.5359834836853,16.2653736115056
IL FORNO,38.7860537501488,16.3511230673621
IL LAGO,38.6638572945249,16.2047048513629
IL MONTE,38.6529980206598,15.8897085736867
IL MONTE,38.5396373948894,15.9941245191975
IL MONTE,38.5914802202762,16.1433046948055
IL PALADINO,38.6084792909889,15.8547835348326
IL PALMENTO,38.5636322058851,16.308692850268
IL PASSO DEL GATTO,38.6197659824794,16.1833367862286
IL PELLEGRINO,38.5720093156796,16.2805033057407
IL PETROSELLO,38.5778457532507,16.3882533625386
IL PIANO DELLA SALUTE,38.527028601327,16.224445816249
IL PIANO DELLE BANDE,38.544624473425,16.2213591384299
IL PORO,38.6032032218176,15.9079849908207
IL PORO,38.6393609463944,15.9462891259375
IL PORO,38.6274245356063,16.2760432312047
IL SANTISSIMO,38.6629397084627,16.2158726914159
IL TORRAZZO,38.715260460243,15.9797251024052
IL VALLONE,38.6327578973442,16.2401437758982
INDICCHERA,38.7278776406416,16.2790247627707
INIONE,38.7417916558418,16.3187043375357
IOCA,38.5319079611046,16.2437222333139
IONADI,38.6270512986413,16.0547921742008
IOPPOLO,38.5856543483769,15.8955132284293
ISOLA,38.6616716722493,15.9543063486302
IUCA,38.6684690525783,15.9395110136403
IUDICE,38.602588347812,15.8630052320245
JANNI,38.5731601578571,15.9363168098544
JUDA,38.7009394649502,15.9788511720321
L'ABBADIA,38.6714350280473,16.0190153799393
L'AIA DELLA CORTE,38.6155646466547,16.3167802559071
L'AIA DI SPAGA,38.4702626363637,16.2802146580738
L'ANGRA,38.4649989859072,16.3216711535293
L'ARENA,38.474435404868,16.2743962349366
L'UOMO MORTO,38.5409361434091,16.2327822985057
LA CALDARA,38.458008671473,16.3357320644574
LA CAPELLA,38.5547361998435,16.2324671145206
LA CASTAGNA,38.5537034013964,16.25250967964
LA CASTAGNARA,38.5163966276981,16.2112814249656
LA CASTAGNARA,38.5166673911099,16.1963402411554
LA CASTAGNARA,38.5562646027993,16.2698950836747
LA CAVA,38.4568539178835,16.2908308748797
LA CENTESIMO,38.4811797985468,16.3512469010627
LA CERTOSA,38.5650927005704,16.3190723430483
LA CHIUSA,38.5242673514964,15.9446537662406
LA CONCEZIONE,38.5467013948963,16.2087947231179
LA CORICA,38.5917586940923,16.2158077611387
LA CRETA,38.740770989118,16.3559301247682
LA CRISTA,38.65854262504,15.9622524924857
LA CRISTA DI ZUNGRI,38.6316926242447,15.972589476084
LA CROCE,38.6990527776728,16.0478568965319
LA CROCE,38.551961146767,16.214310872442
LA CROCIERA,38.6019243039191,16.1359369814311
LA DIVISA,38.8095934295696,16.2172678244246
LA DIVISELLA,38.5812417446471,16.3102063621706
LA FAVATA,38.7070693614358,16.3228618976568
LA FIERA,38.6094443592329,16.2118452763435
LA FIUMARA,38.6092053865377,16.3544261326275
LA FORESTOLA,38.5646119015583,16.4261503897323
LA FOSSA,38.5913293019007,16.1918488261504
LA FURIA,38.6108977288165,16.2526766716582
LA GRAZIA,38.7788612207771,16.2890526091397
LA GURNA,38.6278596409423,16.2691811945919
LA LENZA,38.4739040084183,16.3127203804681
LA MADONNELLA,38.680998580198,16.1031793666433
LA MANCUSA,38.6588132409363,16.253361573519
LA MANNA,38.5937404326151,16.2210772035603
LA MARFITANA,38.6167818352208,15.9829555335753
LA MONACA,38.5533838837035,15.9787290501967
LA PESCATORA,38.5199175765314,16.2219394058184
LA PIANA,38.5992627534474,16.3554679299812
LA PIETRA,38.6229918854776,16.2841894223085
LA PIGNA,38.5711162939296,16.0212355359753
LA PILLA,38.6074369529842,16.3239128900701
LA POLVOLARA,38.5553190744432,16.3409395796486
LA POMARA,38.5671236599025,16.3789793211544
LA QUERCIARELLA,38.6023731005975,16.2964999454113
LA ROCCA DIRUTA,38.7453866336378,16.2174194691313
LA ROCCHETTA,38.7262666565764,16.0418926846605
LA SCENDAMO,38.5733000695979,16.3168577309124
LA SIGNORA,38.6188691874268,16.2870564199186
LA STURA,38.54228288712,16.3047488081252
LA TERRA ROSSA,38.4771251343304,16.3091447589869
LA TORRE,38.627321522772,15.833731165072
LA TORRE,38.6581131143806,16.1292272741791
LA VALLE DI GIOFRI,38.5260218031969,16.2831178480474
LA VENA,38.6033395386964,15.9442769739429
LA VIA GRANDE,38.5210186120507,16.2700554619644
LA VRACE,38.7239833512083,16.0197958610781
LACCU,38.6278015712465,15.9852772349642
LACCU,38.7602946911711,16.3287814957672
LACEO,38.6909770719419,16.0520278871995
LACINA,38.5930384434588,16.413140797253
LACONIA,38.8218280588704,16.2831805909276
LADI,38.4629626929126,16.3319838104007
LAGHETTO DI BIVONA,38.6904295894167,16.0949766258096
LAGNA NITE,38.5856192520844,16.0643696875615
LAIDARE,38.6210235455128,15.8706812709072
LAMPAZZONE,38.6316833866134,15.8744406642109
LAMPURELLO,38.5212665476514,15.9446374811955
LANDANICO,38.5952795932921,15.9402327107227
LANDELLO,38.5922648089098,16.0864910144062
LANZARO,38.6862844835856,16.177498862656
LANZO,38.6227516655503,16.1669017906134
LARIATI,38.5957992306939,15.9484269014537
LAURNA,38.5980969402122,15.9236759227396
LAVATOI,38.6552243680138,16.192389855653
LE ACQUE BIANCHE,38.4891283153566,16.3378772612388
LE CALATE,38.6770197468198,16.0717114748572
LE CALCARE,38.5700512028559,15.9596705416994
LE CHIUSE,38.5468154271594,15.9589944071629
LE CRESTE,38.5477146932982,16.2529795274499
LE CROCI,38.4891587978608,16.3007746294828
LE FORNACI,38.456174162292,16.3162841010018
LE GINESTRE,38.4498190112582,16.3798834237169
LE MANDRIE,38.5691565921592,16.3522619859595
LE MELOGNE,38.5652182697111,16.2752177168803
LE NACARELLE,38.564325514917,16.2229206905216
LE NEVIERE,38.5466430698551,16.3454716327623
LE ORTICHE,38.4652077747866,16.297352656829
LE PAGLIAIE,38.5785486232133,16.181408800567
LE PAGLIARE,38.609085310475,15.9301106745319
LE PIETRE BIANCHE,38.5565943667642,16.3483770576778
LE PIETRE BIANCHE,38.5464329766812,16.2929473123276
LE ROSE,38.7439152213036,16.3237601963121
LE TRE STRADE,38.5328294545525,16.3192516073811
LEMBAS,38.6116356488922,16.0219360937689
LEMBASI COSTA D'ORO,38.6664739122194,16.3051723331965
LEMES,38.6771201617113,15.9572935009689
LEMES,38.6685707855497,15.9481218470393
LEMMI,38.67862817266,16.0352120717298
LENNA,38.5646556304897,16.3642751272682
LENZALONGA,38.6330708155494,15.9919784900466
LENZI,38.5993087369923,15.8953039197322
LEONE,38.6902051722672,16.2118269344815
LI FIGHIUZZI,38.5289043172076,16.3060443980409
LI GURNI,38.6395916040957,16.2347464499952
LI MASTRI,38.4475608286576,16.2918341273574
LICCIARDO,38.7113154763512,16.0600663916063
LIDDIO,38.7219466030571,16.2971626432125
LIMBADI,38.5566763525246,15.9653228915172
LIMBELLO,38.7552263388476,16.3472387369548
LIMPIDI,38.5414754971815,16.174181392136
LINASI,38.5905191388229,15.8898095732585
LINGUA LONGO,38.6204479689595,16.0684567270856
LIPPU,38.6048317858301,15.9491889211134
LIVADI,38.5867429792819,16.0170479377996
LIVASI,38.6314102844859,15.897414882229
LO BIANCO,38.6740727398347,16.047871936386
LO IMPISO,38.6114360540657,16.3096758231891
LO SCHIOPPO,38.6457227761856,16.2067911946354
LO SIETTO DELLO CARICATORE,38.5503796527216,16.3433953679527
LOLES,38.5813148674507,16.1058200939591
LONGOBARDI,38.7037318119591,16.1242748918925
LU SORDU,38.7710768769682,16.220963993423
LUGUNI,38.6328885009476,15.8902986443115
LUONZI,38.7375844053775,16.3241955656103
M. ARCOLIO,38.6048732247414,16.1794401294908
M. CAMPOVERDE,38.5924734717918,16.1310458081257
M. CANDI,38.595569349193,16.1286715086794
M. CANNALI,38.4451047417349,16.3205633712323
M. CASTELLUCCIO,38.706953021452,16.141518824533
M. CASTO,38.618623369014,16.2277591464895
M. CERVO,38.5517518824238,16.2613695321764
M. COCENTE,38.5997095265571,16.1632442828951
M. COGNA,38.5966750066279,16.3772021332449
M. COPPARI,38.7108754912677,16.3225640142151
M. COSTANTINO,38.6231166275478,16.3716426496466
M. CROCCO,38.4908434263795,16.2478202011349
M. CROCE,38.6625175812768,15.9172848668566
M. CUCCO,38.6486213222733,16.3332314639802
M. DELL'IMPICCATO,38.6334644779704,16.3100765918864
M. DIAVOLOMANI,38.5136004363621,16.2424895800802
M. FAMA,38.5246349726706,16.2505487356646
M. FILICETTO,38.6226318684391,16.2227502057444
M. FORI,38.6070201142092,16.2512425774696
M. GREMI,38.4328211692841,16.3357260896884
M. LA MOTTA,38.6583248214949,16.1852467591772
M. LIEVOLI,38.4600603666468,16.2852491247969
M. MARELLA,38.7497863561591,16.2326840295612
M. MARELLO,38.7537224823669,16.2405196803736
M. MAZZUCOLO,38.6278489789687,16.3061719115347
M. PAGLIERONE,38.6736751474176,16.0689027071102
M. PALELLA,38.4657536520236,16.3503170852141
M. PANTAMINALE,38.5082958325601,16.2732266970636
M. PECORARO,38.5256528949202,16.3456771619989
M. PERONI,38.4516433394788,16.2975222489635
M. PETRI,38.6034577891119,16.3566148536007
M. PIETRA SAMBRASE,38.4825213983849,16.3668753616417
M. PIETRE BIANCHE,38.629698162747,16.3331680880177
M. PIPPO,38.6068347847495,16.349018326986
M. PORO,38.6048501485975,15.91058976095
M. S. AGNESE,38.656817428913,16.3422670642214
M. S. CROCE,38.5690347802882,15.9865402807941
M. S. DOMENICA,38.7591075737931,16.2400144497576
M. S. NICOLA,38.5689989917812,16.4284868743187
M. SAGGI,38.5861038406469,16.1410953816455
M. SANTO,38.7199097776766,16.2364840502246
M. SARITANO,38.6261711377339,16.1781806990068
M. TACCI,38.6230627112227,16.2151300472833
M. TARTARO,38.5053050166801,16.2206602527245
M. TRAMAZZA,38.5963980682286,16.3907120261866
M. VAZAMU,38.4499565690321,16.3033478774185
M. VESCOVO,38.578298360683,16.1055671951415
M. VITALI,38.6983279831188,16.0691890925668
M.O  SCIFONI,38.5773405941832,16.0610560521147
M.O BIFAINO,38.5999149132,16.0470338452556
M.O CIAPPETTA,38.6645524454877,16.0020676579922
M.O DI FRANCIA,38.6465932671819,16.0061610920189
M.O FAZZARI,38.6063545397858,16.0524677877518
M.O FIUMARELLA,38.6124221140983,16.0601484276442
M.O MARANO,38.5613952261633,15.995835928315
M.O MIGLIUSO,38.6841318590257,16.2376040451846
M.O MOLOGRANA,38.6660403391501,16.047214618767
M.O PETROSO,38.5421290186675,16.0156619538531
M.O PRAI,38.6942934347621,16.2345020627001
MACIFRISIA,38.721384000938,16.293448562937
MACONI,38.7188698580682,16.25206347348
MAD.NA DEL CARMINE,38.5982886629884,15.909553720585
MAD.NA DELLA SCALA,38.5583024724178,15.9291918594514
MAD.NA DELLE FONTI,38.6262174849785,15.9023703754704
MAGARA,38.624263788288,15.8429203472792
MAGLIANO,38.5661643842485,16.0512614246702
MAGNA,38.5476765291281,16.0487889060429
MAIE,38.6209379673677,16.2676003573768
MAIERATO,38.7069277422546,16.1910286096609
MAIO,38.6335458855371,15.8590219114269
MALAGNE,38.7815972594759,16.3390314744017
MALASPINA,38.6319169319058,16.2344539381254
MALAVRANCA,38.6986356669711,15.9849144742374
MALECUSTE,38.5566093083862,16.0665010316894
MALERBA,38.7582523774611,16.2080972335296
MALIA,38.7827569430923,16.3337573531614
MALOGARINA,38.5999193566117,16.1942990750101
MALOPERA,38.7352846198467,16.2856227134678
MALUVINO,38.7265884444646,16.2831891100789
MAMONE,38.6048660564518,16.0395375646242
MANCIPA,38.6573243634145,16.0198842298961
MANDARADONI,38.5748504593452,15.9656349573503
MANDARADONI,38.6827823224863,15.9851569890973
MANDRICELLE,38.6135819468232,15.8631024783457
MANERE,38.5693837497617,16.0100765885694
MANGIALINO,38.5434930205488,16.1200313578294
MANNA,38.6454528475857,15.8732865286806
MANTINEO,38.6843316493501,16.0574606732456
MARCHICELLO,38.6476200013159,15.8739103863611
MARCIALORO,38.6973212330834,16.0560190472107
MARCOMARA,38.4790266614958,16.2797850026505
MARCONA,38.4477054142001,16.3618179445032
MARCOTORTO,38.5773501777841,16.0348243334292
MARGHERITA,38.665549079043,15.9473578621198
MARIA,38.745698337289,16.2289660753548
MARIA SUSA,38.6745996453754,15.9198991202924
MARICELLO,38.6524944823785,15.961321158952
MARINELLA,38.7923088628444,16.2648731194282
MARINO,38.6469708791139,16.3061973044045
MARTINOLI,38.5594886892874,16.1956496100485
MARZANO,38.5243489437254,16.2073997189919
MASA,38.6295921086256,15.8475781368966
MASA,38.7054875285468,16.0657420686661
MASCOLARA,38.628469158008,15.8752517548679
MASONE,38.7773759200085,16.3433154831115
MASS.A CATANZARO,38.5490523561397,16.0028493496148
MASS.A D'ALESSANDRIA,38.5558072201763,16.0485512696101
MASS.A NATOTOLINO,38.5765472697896,16.0680241502906
MASS.A UMBRO,38.5762698933424,16.1532805225628
MASSARA,38.6723667552907,16.2140320190466
MASSERIA,38.7485265403932,16.236781952703
MASTRO MICHELE,38.5885582173153,15.9321766054676
MATER DOMINI,38.6741865023771,16.2775283466002
MATOSCI,38.5565718409904,16.0497100499942
MATRONELLA,38.5722318668958,15.94417955698
MATTATOIO,38.6759855327087,16.0900087703154
MATTONI,38.6535251580533,16.0590187056513
MAZZARA,38.6567490284405,15.8810893941156
MAZZITELLI,38.6450909054015,15.8914033715269
MELACE,38.7949974241705,16.2901262499397
MELIA,38.6556828154261,16.295851575958
MELICUCCA,38.5359518532691,16.1578453401595
MELIDONIA,38.5490171332928,16.1850220724964
MELISANDRA,38.6554614842103,16.1661911739081
MELITANO,38.5813861661169,16.2492018383105
MENNITI,38.7459667884515,16.3120381923493
MENSOPANE,38.6029545586618,16.2488407335006
MENTICELLA,38.6411054470393,16.1571915135451
MERENDA,38.5825904718825,16.2612659293725
MESIANO,38.6240077239912,16.0116695489229
MEZZA SALMA,38.5739531684162,16.0509616747581
MEZZATESTA,38.5987458888225,16.3627270358777
MEZZOCANTO,38.6566724314869,16.3209689047695
MEZZOCASALE,38.644846602207,16.1077151940908
MICHELINA,38.5528638291129,16.2899869588889
MICONE,38.5196065891631,16.3211092940164
MICOTOSTO,38.5262303866986,15.9636425988898
MIGLIATI,38.6354333179726,16.3121000378815
MILETO,38.606853577988,16.0650393601387
MILETO VECCHIO,38.5941607435606,16.0812490466226
MILIA,38.6432843731939,15.9873162242621
MILOGRAMO,38.6660189383805,15.9832375783811
MINEO,38.5354671468318,15.9482307849075
MINIERA ABB.TA,38.6993663884779,16.0328660991774
MOLADI,38.5896555647154,16.0001071242043
MOLINELLA,38.7065577826222,16.057040461194
MOLINELLI,38.5645615099086,16.1144472018776
MOLINO DON VINCENZO,38.6724445140192,16.2645195222573
MOLLICELLA,38.5041963123761,16.3370321498959
MONACA,38.6301673464459,16.0121696972048
MONACA,38.6853497242206,16.047473037884
MONACA,38.7845417010338,16.2276524395982
MONACELLE,38.5818765550086,16.4269854763078
MONACI,38.559439117137,16.0179025617745
MONACI,38.6873487653555,16.0596436359096
MONGIANA,38.5140185879683,16.31958490715
MONSORETO,38.5151317739308,16.1636138022832
MONTALTO,38.5997774156952,15.9046689678531
MONTE LATRO,38.5440773575365,16.2644024184851
MONTE TROILA,38.5069764306054,16.2842936234274
MONTEROSSO CALABRO,38.7176971326453,16.2886661834173
MONTESORO,38.8171092810165,16.2918958168827
MORANA,38.6131922868286,16.3169895614552
MORTA,38.689551138187,16.0562612388945
MORTELLETO,38.5142823699358,15.927731053985
MORTELLETO,38.5386724837533,15.9373955577859
MOSELLO,38.6411701557252,16.0163690139445
MOTTA FILOCASTRO,38.5718414595818,15.975306088036
MOVRELLA,38.7406699075913,16.2460007598938
MULE,38.7395996543214,16.3189056390188
MUNDALORA,38.6568791831156,16.2446050287924
MUNIO DIFESA,38.7287213469725,16.2948808232378
MUOMMO,38.7029674798718,16.3230163062573
MURAGIANO,38.5881259272208,16.1949188619025
MURAGLIA,38.6563910369567,16.2880265114163
MURANO,38.5753864158278,16.2549180312596
MURDIATE,38.6805831702114,16.0504271277257
MURINI,38.6203426494704,16.3568295467886
MURRO,38.670148367748,16.0423086957614
MURTINO,38.6142575802406,15.9187603761833
MURZILLO,38.69490754893,16.3008710563883
MUSI,38.5815669502981,16.003863937674
MUSURICI,38.6458928247561,16.0296963197421
NAO,38.628859573668,16.0621022076392
NARDEA,38.6573353674736,15.890532256369
NARDO,38.525869895856,16.1667120143393
NARDODIPACE,38.4724457574511,16.3427845748901
NARDODIPACE VECCHIO,38.4468770461943,16.3477306934542
NARTE,38.5828136727487,16.0487257436107
NASIA,38.7524607197921,16.2095876826845
NATO,38.5853795340037,16.0520122736856
NICASTRELLO,38.6814512714381,16.2888780325924
NICOTERA,38.5530982091132,15.9387878707338
NICOTERA MARINA,38.5466857217431,15.9337930856778
NIDDARO,38.749701587798,16.2766753808786
NINERA,38.6376541696902,16.0828213979813
NINFO,38.5281308102732,16.3227679884497
NOCE,38.5485214426783,15.9685073116878
NUCARELLA,38.6242598718255,15.9234256002712
NUCARELLA,38.6588711284469,15.9758991918494
NUCARELLA,38.6361235844909,15.9869077639198
NUCARELLA,38.7094275232244,16.0394975000351
NUCARI,38.6493854906028,16.3005759491996
OCCHIO,38.4413995594979,16.3639452316788
ODESSE,38.5365262705123,16.1397150325432
OLEIFICIO STILLITANI,38.7316498699989,16.2116870787932
OLIVADI,38.615468013738,15.9610334925274
OLIVARA,38.7163467281006,16.2179388115668
OLIVARELLA,38.5425884258374,16.1647101694544
OLIVETO,38.5788226147701,15.9003190294717
OLIVETO,38.6604869351296,15.9426018692308
OLIVETO,38.6277150096034,15.9686642405704
OLIVETO,38.6022119617559,16.0329419106264
OLIVO,38.6268428229489,16.2896458476782
OMBRELLINO,38.5544731530716,16.330572406854
OROLOGIAIO,38.6819060674559,15.9659683543544
ORSIGLIADI,38.6291981279373,15.8608081767698
ORSIGLIADI,38.5985435082896,16.0019300067665
ORTO ULNAO,38.6272240012346,16.0625950352533
P.NI DI CANNALI,38.4675630360396,16.3737339044121
P.NI DI S. GIOVANNI,38.5747718830991,16.2742616384028
P.NO DEI QUERCI,38.6379723889619,16.0970274042508
P.NO DI CIANO,38.4759734827885,16.3447759128406
P.NO DI VILLA,38.729489361338,16.3434074624859
P.SO DI TAVERNA,38.573124728119,16.4300838114643
P.TE CELLARO,38.7039797642692,16.2523787368888
P.TE CENTO FONTANE,38.6903239203827,16.2594302428426
P.TE CUCURRIA,38.6380020123832,16.1195820339871
P.TE D'ARVO,38.593052579726,16.3454304700962
P.TE DELLA VRACE,38.6548134204384,15.8541042322538
P.TE DI COCCORINO,38.6081157805281,15.8588908772047
P.TE DI FERRO,38.7235762626194,16.1473278799423
P.TE DI GIOACCHINO,38.4832590626627,16.2841821085491
P.TE DI SORETO,38.5479498430972,16.1213857302285
P.TE FERILLA,38.5374683061555,15.955921527814
P.TE MAMMELLA,38.5274522642522,16.0027215418113
P.TE NOCELLARA,38.5758922377724,15.980159439985
P.TE OLIVO,38.5317957722094,16.0090345144515
P.TE SANTORO,38.7482751960442,16.2892272865316
P.TE SOMMARIGA,38.5290626356413,15.9967094176314
P.TE SPINA POLICI,38.6024462466777,16.2114749195264
P.TE TRE LUCI,38.6350164527073,16.1189266621062
P.ZO CORVO,38.670808130387,15.9577726862256
PACCIARELLA,38.5894999183227,16.0497760100845
PAGANO,38.6788954246693,16.0243059800238
PAGLIAI,38.6796136322916,15.9685702149443
PAGLIAIO DI MOTTOLA,38.5947935619831,16.0372220195817
PAGLIERONE,38.6222246443395,16.1967710997831
PAGLIOCASTRO,38.6634412943902,16.1602864277217
PAIENI,38.6435693619379,16.3154197442712
PALADINA,38.7558442666815,16.2561618000887
PALADINA,38.6198517808958,16.2976301477727
PALADINE,38.5973373851179,16.2533365950343
PALATI,38.6386251438744,16.281044480512
PALAZZO,38.7051107847715,16.0605957871582
PALLIO,38.5542552956678,15.9649462194684
PALOMBARO,38.5630544742851,16.1463892636533
PANAIA,38.6231690385477,15.8921198314078
PANAIA,38.6227816496305,16.3176818703731
PANELLA,38.8029165573942,16.2249850769196
PANNACONI,38.6915875873629,16.0401936121142
PANTALEMATO,38.546295410395,16.0173959272446
PANTALONE,38.6524298059882,15.8754398148464
PANTANO,38.6359457114395,15.8375191988588
PANTONELLE,38.6126716771313,15.9926622885756
PAOLINO,38.638465036491,16.0019340827478
PAOLO CASTELLANO,38.4868614092453,16.3602157291939
PAPA,38.640302605708,16.2210971525102
PAPAGLIONTI,38.6459572431088,16.0171835549457
PAPAINO,38.619966868092,16.0367919255767
PAPARELLO,38.5702489402318,16.244876605063
PAPPADISO,38.6105423212057,15.887553027463
PARADISONI,38.7015655558384,16.0449956015804
PARAVATI,38.5917085464259,16.0576965208732
PARDALUSA,38.5244364265599,16.1980060436874
PARGHELIA,38.681782922712,15.9231986851264
PARMICELLA,38.6544271881873,16.0337373831022
PARNASO,38.5689429553208,15.9018486687746
PARRERA,38.716315563559,16.3108057302236
PARRIERA,38.5893532958622,16.2346776815278
PARTECELLO,38.6231470153443,16.0153219212693
PASCAL,38.607254597007,16.2820253602297
PASSAGGIO,38.6543995167778,16.318755152992
PASSICELLO,38.7126904182868,16.3110385501349
PASSIONE,38.6621518118345,15.8935227936087
PASSO,38.5814721305335,15.9810389323936
PASSO BRUCIOLLI,38.7413244677895,16.3129772622361
PASSO DEL LUPO,38.6102636135822,15.8969216712456
PASSO DELL'ABATE,38.4888241871526,16.2779632624826
PASSO DELL'ABATE,38.6298130480431,16.2964885698024
PASSO DELLE COPPE,38.4971131952243,16.2871686928795
PASSO DI PIETRA SPADA,38.5035175885313,16.3475013624578
PASSO DI SCIACCA,38.7419460953885,16.2614411949207
PASSO DI VASTA,38.6205015606385,15.8897549176262
PASSO FOSSO DEL LUPO,38.7624483819757,16.3585616416289
PASSO MAGARA,38.7455591682897,16.2944485057602
PATOIA,38.4720191359079,16.3725919273794
PAVOLELLO,38.7609363235625,16.3341566531101
PAVONE,38.7198264066218,16.2594878459803
PENDINA,38.5676846548919,16.0635311149628
PENDINA,38.6365222366496,16.2936222344906
PEPPE ANTUONI,38.5921261025514,16.3685955118834
PERARA,38.5498080436288,16.0320309964127
PERNATA,38.7463030261736,16.2534860802242
PERNOCARELLO,38.6127208015963,16.0069511784581
PERNOCARI,38.6099549539755,16.0068665736892
PERRONI,38.727364070964,16.1787250985764
PESA,38.570816177365,16.055071361238
PETRARA,38.5790991794362,16.0162283468341
PETROFILO,38.6420659158575,16.2687883094996
PETROSA,38.6615781117986,15.9808666517169
PETROSA,38.6885320556334,15.9579974605554
PETROSI,38.6625353376556,15.9730755050455
PETTI DEL LUPO,38.6571783291789,15.8706935874316
PETTI DEL PORO,38.6172791141183,15.9091962137467
PETTI DELL'ARENA,38.649381978162,15.9305510362519
PETTI DELLA SENTINELLA,38.6218095744791,15.8520469647387
PETTI DI BRATTIRO,38.6372752708286,15.8929151137414
PETTI DI CAFARO,38.6415575211188,15.9183045265688
PETTI DI CANNATA,38.5726305486787,15.9143958182751
PETTI DI FANA,38.5202034731811,15.987203956028
PETTI DI TORRE GALLO,38.6345264067681,15.9299683006139
PETTO DELLA TORRE,38.5967462292069,15.8754749816914
PETTO DI BRAGHO,38.5427652417897,15.9704037313609
PETTO DI CASELELLO,38.585835382654,16.0301468903577
PETTO DI PAGLIANITI,38.5203479348759,15.9988604724947
PETTO S. FRANCESCO,38.6702764660982,15.9080614585891
PEZZA GRANDE,38.6570487815792,15.9476481226923
PIANA,38.6259802438909,15.8766804606577
PIANA,38.6923623296924,16.0721473466824
PIANA CAVALLARA,38.6776141973729,16.1945086736295
PIANA DEGLI SCRISI,38.7472581876396,16.2046439051257
PIANA DEI TRE OLIVARI,38.6726912584646,16.1743103791618
PIANA DEL BOSCO,38.6447624214803,16.2577474510115
PIANA DEL SALVATORE,38.7163807625077,16.0368606797479
PIANA DEL TORNO,38.7250856150393,16.3178334995564
PIANA DELL'ACQUA FREDDA,38.6077196091927,15.9453450573013
PIANA DELL'ANGITOLA,38.7942607261047,16.2133798527329
PIANA DELLE CAVERRE,38.6455389936868,16.2201633523226
PIANA DI BRATTIRO,38.6417793573647,15.8776657591765
PIANA DI MONTESANTO,38.7064165327388,16.2359410764557
PIANA DI S. COSIMO,38.6505707028934,15.8913103891821
PIANA DI S. LEO,38.7094710562415,16.0160932921062
PIANA DI SPARTA,38.6551109327039,15.8736106544603
PIANA DI VADI,38.7204629523631,16.0499869621683
PIANA FICARA,38.541289321657,16.0394593286295
PIANA IMCENSI,38.5669701579094,16.0171823623941
PIANA PUGLIESA,38.5679844583434,15.9389356318979
PIANA S. MARIA,38.6501051925085,15.9049912896913
PIANE,38.5812836832005,16.0240774717248
PIANI DELLE TRIARIE,38.5396148639823,16.28689327237
PIANI DI CARROCCI,38.6042785953044,16.2631729088652
PIANI DI FELLARI,38.5375492095437,16.1846388266919
PIANI DI S. ANGELO,38.605797353703,16.1762625825492
PIANI DI S. BRASI,38.5894860198423,16.1012952546795
PIANO,38.585189613162,16.2550427265181
PIANO BRUNO,38.6164577933218,16.1726921984973
PIANO CAVALLARO,38.6003689872568,15.8706383668396
PIANO DEI MOLINI,38.5533064724369,16.0027822120069
PIANO DEL CAMPO,38.6985873443439,16.0261622402406
PIANO DEL CAMPO,38.7648168801239,16.3415261098067
PIANO DELL'ACQUA,38.724987853876,16.2991962203645
PIANO DELL'ACQUA FREDDA,38.6116211245617,15.9641866357114
PIANO DELL'OMBRO,38.6165344240496,16.3688984660672
PIANO DELLA CROCE,38.6949489294458,16.3044363642062
PIANO DELLA VIGNA,38.715103466694,16.2359411546415
PIANO DELLE ANGUILLE,38.7816189402782,16.3488980473447
PIANO DELLE CASE,38.6237263647318,16.1909030813367
PIANO DELLE QUERCE,38.5555124218515,16.0401805791396
PIANO DELLI SCRISI,38.7196423774434,16.1786212387101
PIANO DI BADILE,38.6115281170869,16.2194491628446
PIANO DI CASE,38.5830249167892,16.0310366929832
PIANO DI CASSARI,38.4417526943,16.2938847385491
PIANO DI CATA,38.5490646456625,16.1046029587972
PIANO DI S. CROCE,38.790407343148,16.271529108425
PIANO DI S. GIOVANNELLO,38.5856801638827,16.1035218969359
PIANO DI S. GIOVANNI,38.583177235249,16.3953477152241
PIANO DI SCARRO,38.8030019167342,16.3133485285882
PIANO DI SEDARI,38.5980256711677,16.0968554012773
PIANO DI VENETE,38.5551134368045,16.1129585588944
PIANO LA LENZA,38.5786344043485,16.1437438958974
PIANO NOTARO,38.5715399182565,16.0647129044856
PIANO PIRAINO,38.6226833100753,16.110027678003
PIANO RENA,38.6040484047582,16.0573723380825
PIANO RIGO,38.5530795541227,16.059241853662
PIANO TRANQUILLO,38.5397056661035,16.0248759635349
PIANO UMBRO,38.703239264992,16.3100839397279
PIETRA,38.5926650616914,16.1566200819863
PIETRA ACITO,38.7455766272622,16.3619009180681
PIETRA DEL CARICATORE,38.5432580820191,16.3592236260002
PIETRA DEL SIGNORE,38.5419991072082,16.3425968813411
PIETRA DELLE MELOGNE,38.5254440697117,16.2380128162566
PIETRA DI COPPARI,38.709073481338,16.3225423092056
PIETRA DI PRASTO,38.5825847493704,16.2833431295656
PIETRA DI S. DOMENICO,38.592793831938,16.2826063065659
PIETRA GRANDE,38.6047872828163,15.8690839191757
PIETRA MERCATA,38.53669337399,16.3089962077496
PIETRA PAPARA,38.7084013408545,16.3158250080585
PIETRA PERCIATA,38.560288180887,16.3523597445835
PIETRA PERCIATA,38.7365656176061,16.3431948747504
PIETRA TONDA,38.5191911267829,16.2421612832071
PIETRABIANCA,38.6256317153968,16.323052735039
PIETRABIANCA,38.6860620062619,16.3054016906765
PIETRAGRANDE,38.5883624909282,16.2741459117487
PIETRASANTA,38.5758145842071,15.9743495867044
PIETRE BIANCHE,38.683766636639,16.3323428937589
PIETRO OLIVELLO,38.483518511093,16.3295761632947
PIGIZZA,38.5694629049058,15.9719909850564
PIGNA,38.6505964915845,16.2781894393054
PIGNATARO,38.7016332093468,16.0743212481234
PIGNATARO,38.619328899486,16.2197535561609
PILLA,38.677564287446,16.0063646650915
PILLI,38.654901354948,16.0543155974059
PILUCHI,38.791102501169,16.2984497540016
PIMENI,38.7253846948834,16.2127776126952
PIOPPARELLI,38.5848929324268,15.9597417599863
PIPARELLO,38.7257889574684,16.2386790373356
PIRAINO,38.565787200543,15.9387348630622
PIRAINO,38.5617012025172,15.9436744708304
PIRARA,38.5608399950871,16.2567653411029
PIRARELLA,38.6973772183665,16.0627698926067
PISARI,38.7129126141832,15.9835231296666
PISCOPIO,38.6625289233115,16.1132286342414
PISTARI,38.6221526589205,16.0341928346964
PITRERA,38.4779899440471,16.3180106059918
PIZZI,38.7068030382173,15.9856360621275
PIZZILLO,38.5326415510931,15.9477233001248
PIZZINNI,38.6247447248742,16.0477279823013
PIZZO,38.7353295434877,16.1616787924023
PIZZONI,38.6224275222186,16.2522914090785
PIZZOTTO,38.7137181427023,16.3061691553408
PIZZUTA,38.6846511301925,15.922879125894
POD.E CURRE,38.4994130632473,16.1933942937271
POGLIOLO,38.7089818166282,16.2648639451297
POGLIOLO,38.7514642573468,16.3095726310173
POLIA,38.748847552993,16.3090760365871
POLICARI,38.581135271105,15.8865939679771
POMARI,38.5774672320387,15.9363842046643
POMPO,38.7134226378646,16.0512526618802
PONDICO,38.6152719354227,16.3409640179168
PONGADI,38.6144873291932,16.1283936216656
PONTANA,38.6403043869547,15.9729931162866
PONTANA,38.7649181695427,16.2982512118526
PONTANELLA,38.6370782243714,15.9783955703685
PONTANO,38.6899065881021,16.0607966739908
PONTANO,38.4918211317433,16.2873726416534
PONTE MORATO,38.5778476815435,16.1197955486103
PONTONIERI,38.6257780048259,16.0369445334147
POPA,38.6187910547526,16.0594036604938
PORO DI NICOTERA,38.5998743001649,15.9370198025971
PORO DI NICOTERA,38.5991144288018,15.9574162301261
PORO DI SPILINGA,38.6188552218229,15.9600793502499
PORTICELLA,38.7553875579706,16.2432529633871
PORTICELLA,38.5966250929388,16.2947544777969
PORTICELLA,38.5996122251555,16.2820845951292
PORTICELLA,38.6093623257856,16.2746895553223
PORTICELLI,38.6866214138688,16.0702450613305
PORTO SALVO,38.7097320271096,16.0745919715523
POSTOLITI,38.7374399950119,16.2722920694105
POTAME,38.7191765190519,15.9919484661353
POTENZONI,38.6901332191778,16.0034707556739
POZZO,38.5866294710517,16.2501767505908
POZZONARO,38.613195124271,16.1808053548407
PRAI,38.705764562225,16.2455786604383
PRAIA DI ZAMBRONE,38.7093385870613,15.970155804508
PRAZZICA,38.4920057265687,16.309735079083
PRECORI,38.664220466581,16.3092576415096
PREIA,38.6489306206378,15.9662148800752
PREITONI,38.5765581304354,15.9226308510228
PRENESTINO,38.5731598452511,15.9564173028102
PRESINACI,38.6081210342053,16.0178090765492
PRESTIA,38.5931228061255,15.9779823580653
PRISCOPIO,38.6474945540992,15.8628886591844
PRISCOPIO,38.6964573801795,15.9749378756229
PRIVOGLIA,38.6362081982524,16.2679841829316
PUCCIARELLO,38.6320312446659,16.0895840746433
PUGLIESI,38.6760944828573,16.0434870322137
PURGATORIO,38.6037255976468,16.373822822022
QUERCE,38.5881438461503,16.3631236237051
QUERCIA GRANDE,38.595482254064,15.881786784642
R. FAMEDU,38.7501238880684,16.2576725782249
R. SERRE,38.7492874808367,16.2423531349181
RAGONA,38.440596173067,16.3437868927838
RAGONI,38.4760260713953,16.3828246764177
RANIRA,38.6791453843688,15.9921773633524
RAZZARA,38.5584196766041,16.1530984974729
RAZZIE,38.7169026468109,16.0018090666608
RAZZINO,38.6420925283042,16.1196571716226
REGINA ELENA,38.6557246545534,16.1028260366121
REGNIERI,38.6843752044726,16.2091762581098
RERA,38.6820828965606,16.0429531742495
REVISINA,38.6244536038472,16.0560522064563
RIACI,38.6687177586009,15.8700861798797
RICADI,38.6263869126991,15.8668517054144
RICCOZZA,38.6712745581056,15.9436284430879
RICEVITORI,38.6935349233162,16.2507592703397
RIMELLA,38.6270603790083,16.0940350736702
RINAZZI,38.5297494278899,15.9375665799759
RIO CRIDELLO,38.6470956377901,16.1344436245819
RIO DEL LAGO,38.6712315200162,16.2079205638452
RIO DEL LAGO,38.6928938878279,16.1851271479444
RIO DEL LAGO,38.663740762107,16.2081395068643
RIO SANTO,38.6909580811271,15.959961520663
RIO SICCAGNO,38.6787492884291,16.2830125889953
RIO TALAGONE,38.7660310281538,16.2532672484294
RIO VARELLI,38.6587043416394,16.1379596954146
RIPA,38.6338432661706,16.0460681291754
RIZZIELLO,38.6335189383141,16.3636609439714
RIZZUTO,38.7067312395294,16.044760276885
ROBINO,38.6871182667776,16.0113849672539
ROBINO,38.6013702809373,16.1538773796486
ROCCELLA,38.6169100991115,16.2996101783551
ROCCELLA,38.7122180451597,16.2984589556593
RODENO,38.4490484694264,16.3493295622245
ROMANO,38.5297454321049,16.1943655761849
ROMANO,38.6984347297854,16.2635512090725
ROMBIOLO,38.5968913299293,16.0043874030745
ROMBOLA,38.596309667,16.1580450429727
ROZZO,38.6077499715893,16.0334117974801
RUBINELLO,38.6037779579571,16.3159561521631
RUBINO,38.6053896509374,16.2178752571189
RUD.I DI IPPONIAN,38.6810010196645,16.1199873160402
RUFFI,38.7515029511186,16.2467069286437
RUGGERI,38.6716100569383,16.1341177601555
RUNCI,38.6891622065335,15.979828956943
RUPITI,38.619772044074,15.9482141589167
RUSSO,38.6392909631997,16.2039372639122
RUSSO,38.6436276340084,16.2784677812014
S. AGATA,38.6549603710573,15.8982488090988
S. ANDREA,38.6851704726796,16.0433314170023
S. ANGELO,38.6679600599932,15.8964341493884
S. ANGELO,38.611507409433,16.1693956958163
S. ANNA,38.5984943511729,16.0170300280905
S. ANTONIO,38.6788429804665,15.9142972458111
S. ANTONIO,38.5327332739615,16.2915088856842
S. BARBARA,38.6374376812681,16.2088811972379
S. BIAGIO,38.8188732971495,16.2814573722935
S. BRUNELLO,38.5684546271621,16.366149066858
S. CALOGERO,38.5746613406326,16.022904354413
S. CATERINA,38.7576536555826,16.2041166272464
S. CHIARA,38.6528565529021,15.9545226502787
S. CHIARA,38.6580545632018,16.0732331511149
S. CHIARA,38.6274062803669,16.0423328889212
S. CONO,38.6842727114958,16.0142651770092
S. COSTANTINO,38.7062642379594,16.0023736275292
S. COSTANTINO CALABRO,38.6306523251679,16.0740077770366
S. CROCE,38.556432953544,15.9387394302653
S. CROCE,38.7496083962234,16.3215408649132
S. DOMENICA,38.6638568562179,15.8657171151418
S. DOMENICO,38.532939143036,15.9837525118208
S. DOMENICO,38.6480783104589,16.0859775141911
S. FILI,38.6239533343577,16.0210425690058
S. FRANC.O DI PAOLA,38.6767424142016,15.9063037954012
S. FRANCESCO,38.5524646456914,15.9346252635863
S. FRANCESCO,38.5997992202232,16.2259569809462
S. FRANCESCO,38.7377206419336,16.1658940502873
S. GIORGIO,38.723623419704,16.04423550125
S. GIOVANNI,38.5336051279942,15.9533577834189
S. GIOVANNI,38.6747163803308,15.9733898531078
S. GIOVANNI,38.5851914567559,16.0834911401073
S. GIOVANNI,38.5837599279625,16.0872354010166
S. GIOVANNI,38.5856999702621,16.2612169969853
S. GREGORIO,38.7314020791126,16.2739796419884
S. GREGORIO D'IPPONA,38.643196626686,16.1020824361049
S. IRENE,38.7199904970477,15.9990109727094
S. LEO,38.7196659336652,16.0240250357213
S. LEO,38.6415678973896,16.2085943943808
S. LEO VECCHIO,38.7104782193989,16.0194429321853
S. LUISI,38.6117777730944,15.9348889936087
S. MARCO,38.5392549595908,16.0269463584791
S. MARCO,38.6762174202527,16.0110246100839
S. MARIA,38.6105139366173,15.8488696963148
S. MARIA DI CROPANI,38.495806903179,16.3171197413712
S. MARIA DI DROSIA,38.5070651016742,16.3031840255319
S. MARINA,38.6304309073236,16.3210041353014
S. MARTINO,38.7100952749273,16.2652285987773
S. MICHELE,38.6069708078286,15.9009003767678
S. MICHELE,38.6934515818209,16.1646001062076
S. NICODEMO,38.688206684547,15.9614079664383
S. NICOLA,38.686451527688,16.0248276195
S. NICOLA,38.6961744329256,15.9871805278152
S. NICOLA,38.7181758337889,16.0657234497904
S. NICOLA,38.5442862089164,16.1742729978885
S. NICOLA DA CRISSA,38.6636018192909,16.2862362637961
S. NICOLA LE LEGISTRIS,38.5619666946289,15.9911494676422
S. NICOLO,38.6330950433221,15.8504227153978
S. NICOLO,38.6734722923556,16.0373908974269
S. OLIO,38.558166520989,16.2455289116665
S. ONOFRIO,38.6947815363979,16.143061631293
S. PIETRO,38.5355375672021,15.9583971861944
S. PIETRO,38.6525151301816,16.0226430738584
S. PIETRO,38.5725387947683,16.0367641765299
S. PIETRO,38.5697555717987,16.2181113516704
S. PIETRO,38.7476339643738,16.336682191567
S. PIETRO DI BIVONA,38.7029769150386,16.1099110272115
S. ROCCELLA,38.6107709545627,16.3183464701485
S. ROCCO,38.6996555397241,16.0163223646036
S. ROCCO,38.6330170983812,16.0527771288594
S. ROCCO,38.5953885244624,16.2081525826273
S. ROCCO,38.5824764828795,16.3341199014783
S. RUGGERO,38.7497755627935,16.2830863161953
S. SODANO,38.6736175895308,16.0052748112664
S. SODARO,38.6777394915838,16.0286924970955
S. STEFANO,38.6460929319975,15.9540192268781
S. STEFANO,38.7532785407713,16.2534124488731
S. TODARO,38.4424571837789,16.3744609490266
S. VARVARA,38.6942183532698,16.283323407399
S. VENERA,38.5954429299358,16.0553054646703
S.RA DANI,38.745388617094,16.3025000944855
S.RA MADRE PULITI,38.7390663786904,16.2891652328814
S.RA S. ANDREA,38.5849259598341,16.3990784097099
S.RA SCINC,38.7453323294874,16.2994613140109
S.RA ZECRI,38.7335586367015,16.2770207036978
S.S. 110,38.740686749843,16.2333674956804
S.S. 110,38.5348997159204,16.3250488764832
S.S. 110,38.5993975988565,16.339060891051
S.S. 110,38.6313036317995,16.3251100141288
S.S. 110,38.6750897846879,16.274854475801
S.S. 110,38.6647343715747,16.2840382322308
S.S. 18,38.5805396311737,16.0510806216048
S.S. 18,38.5854181185409,16.0547339063443
S.S. 18,38.6979542364839,16.1178253542763
S.S. 18,38.6736413370828,16.0882029305836
S.S. 18,38.6662637009577,16.0781717612273
S.S. 18,38.6641044849019,16.0758291165349
S.S. 18,38.7562044532568,16.2004555882681
S.S. 182,38.6515776558887,16.0991770002315
S.S. 182,38.6355297848073,16.1367199800518
S.S. 182,38.6710705406782,16.0971530562338
S.S. 182,38.603564359071,16.2079221773623
S.S. 182,38.6050599916882,16.193017653816
S.S. 182,38.6354257171112,16.3263577937155
S.S. DELLA CALABRIA,38.7913247713413,16.2253047684405
S.S. DELLE SERRE CALABRE,38.7076484310731,16.1189883709294
S.S. DELLE SERRE CALABRE,38.6185709018163,16.1686489057638
S.S. DELLE SERRE CALABRE,38.5778310716689,16.3097885166669
S.S. DELLE SERRE CALABRE,38.5906088545665,16.2639437309268
S.S. DI MONTECUCCO E DI MONTE PECORARO,38.7162783485818,16.247497949886
S.S. DI MONTECUCCO E DI MONTE PECORARO,38.7621340032287,16.2195915636199
S.S. DI MONTECUCCO E DI MONTE PECORARO,38.5550377429087,16.3260841402235
S.S. DI MONTECUCCO E DI MONTE PECORARO,38.6214533389912,16.329948437518
S.S. DI MONTECUCCO E DI MONTE PECORARO,38.6554253006061,16.3060405624513
S.S. TIRRENA INFERIORE,38.6222822129322,16.0679210737274
S.S. TIRRENA INFERIORE,38.7259419970152,16.1532556049928
S.S. TIRRENA INFERIORE,38.7867485089731,16.2139432975838
SACCO,38.7067402466632,16.028498411961
SAFO,38.7236387356239,16.0535764880541
SAGINARO,38.4793477907454,16.3062042694471
SAGRAMENDO,38.6190575421478,16.0244191568868
SALAGHI,38.5142904510162,15.9346476234901
SALANDRIA,38.5451705129619,16.1990499638978
SALELLA,38.5543740011883,16.4195559262141
SALICE,38.4452795321014,16.3857898889647
SALITA DEL ROMANO,38.498719238094,16.3360708381817
SALVATORE,38.5755453916612,16.180751183688
SAMBATI,38.6330984854378,15.8634858139521
SAMBRASE,38.7833436766864,16.3297158017435
SAMBUCO,38.607491104484,15.9116797542848
SAMBUCO,38.6419314335077,16.1692810261179
SAMBUCO,38.4651254243119,16.3446087946356
SAMBUCO,38.5177438204143,16.3015642556168
SAN NICOLELLO,38.6442355100861,16.1901164217118
SANGUSMA,38.6145290854572,16.2610899813918
SANTA,38.5614603783464,15.9643768596878
SANTA MARIA,38.6290745671522,16.1277146805944
SANTA MARIA,38.6755193420881,16.2288340582185
SANTA SOFIA,38.8074179391566,16.3020281447464
SANTA TRAVA,38.6661817793657,16.1773189354617
SANTO,38.6414605937743,16.2429135004503
SARACENO,38.5885462007468,16.0566167595236
SARACINO,38.6517475962652,15.9174233120288
SARITANO,38.6249274276384,16.161974450755
SAVINI,38.5932239150697,16.24698420305
SC.RA PROVENZANA,38.555872550482,15.9138965568442
SCALETTA,38.5539992731643,16.1192303649531
SCALITI,38.6151040513988,16.0424879159954
SCANGIOI,38.6836172962278,16.0517361565377
SCANSATA,38.7388114248346,16.3112744341337
SCAZACANI,38.6996304647714,16.3080517052674
SCESA DELLA GROTTA DEL FAGO,38.6200289112337,15.9308148677468
SCHIACCIOTTA,38.5122466094233,15.9377983224154
SCHIAVELLI,38.7958170642545,16.3295445612914
SCHIAVELLO,38.6487509873666,15.8425866522488
SCHIAVELLO,38.7103992726335,15.9919536676143
SCHIETI,38.7396429487139,16.3029940048903
SCHIOPPO,38.6185774176702,16.1442861365499
SCIACCA,38.7407688789785,16.2569561668266
SCIAMA,38.5488654705782,16.1189327350296
SCICONI,38.6916921190648,16.0314449239718
SCOGLIO,38.6312557500857,15.957820611655
SCORDARI,38.770427752033,16.2465988908901
SCORZONARA,38.5651901776777,16.2901155024016
SCORZONE,38.7617112115729,16.2793638758492
SCRISI,38.7300236506328,16.1705317124972
SCRUNI,38.4879260527673,16.3287055199976
SCUPOLI,38.439755707628,16.3113912095696
SEGH.A DI B. REGGIO,38.5066094894934,16.2025847698288
SEGHE ARCHIFORO,38.5419319037548,16.3311215122456
SEMINARIO,38.7232339649959,16.0011957639722
SERPE,38.5145469673427,15.9453525685107
SERRA CUCULLARO,38.7459153992219,16.3482258926764
SERRA GEDA,38.6519036926594,16.1542049730072
SERRA S. BRUNO,38.5792648001471,16.3304786984275
SERRA S. BRUNO,38.5722660327159,16.325436594699
SERRAMONDO,38.6533348465518,15.934348645115
SERRE,38.6543229950745,16.006418621031
SERRICELLA,38.4930314336031,16.2780719899115
SERRO,38.475506442758,16.3312287531889
SERRO,38.4723862665712,16.3210723844146
SESSA,38.6842386113925,16.0315563510003
SESTA,38.5945729898747,15.9909202078467
SETTOTONDO,38.4698990419619,16.3234685507722
SIGNORE,38.7004924600908,16.0551112126109
SIMBARIO,38.6113389238089,16.3358028597452
SINDACA,38.5507821942066,16.0133622895336
SINDICHELLA,38.4909523019618,16.2561808748553
SIROTO,38.5797833866189,15.9077704035976
SOLARO,38.7233311210691,16.0294379204468
SOPRA I PIANI,38.6518496027758,16.289634455493
SORDO,38.7662496746497,16.2386763020503
SORG.TE FANURENTE,38.7155927370701,16.3197869891718
SORG.TE FERRARELLO,38.7125091030842,16.320742398971
SORG.TE VENA DEI MONACI,38.6058523398763,15.998724074513
SORIANELLO,38.5918820079834,16.2324475256619
SORIANO CALABRO,38.5975961217997,16.2298007854682
SPADOLA,38.6036743309131,16.3378082374949
SPAGA,38.4634531561051,16.2741226975017
SPANO,38.7035559085071,15.977403313024
SPATAFORA,38.6526169677433,16.1310026750922
SPIAGGIA DEL TUONO,38.6318920077027,15.8309808138668
SPICCHIALI,38.7003109681299,16.3220588989308
SPILINGA,38.6287549029933,15.9052053339186
SPINETTO,38.5736088446404,16.3286065640163
SPITALIERELLO,38.589295945994,16.2982625218434
SPITALIERI,38.5911656920208,16.3035434695
SPOSADI,38.643430308763,15.9687838560452
SQUELLE,38.6538191196435,16.2526884387403
SS. MARIA DEL CARMINE,38.7168408566144,16.0529360643522
STAB.TO DI S. MARIA,38.5601492656846,16.313920597777
STAFALLA,38.6400668025049,15.9841582642276
STAGLIATA,38.5885265737434,15.9063763545964
STAGLIATI,38.6473773866525,16.240717521526
STAGLIO,38.7678028241072,16.2859299492756
STALANO,38.6977803486436,16.29372470625
STALIATA,38.6148150116877,16.2248457321596
STAZ.E DI COCCORINO,38.6055699707528,15.8595036690074
STAZ.E DI FRANCAVILLA ANGITOLA,38.7781040899839,16.2150630400145
STAZ.E DI IOPPOLO,38.5802899194564,15.8970079716293
STAZ.E DI LONGOBARDI-S. ONOFRIO,38.7097239510951,16.1419884324307
STAZ.E DI PIZZO,38.732516278793,16.1618518112249
STAZ.E DI PIZZO-MAIERATO,38.7261934272306,16.1506022864484
STAZ.E DI RICADI,38.6307469515411,15.8398943119091
STAZ.E DI TRAINITI,38.7180094756693,16.0769934120389
STAZ.E DI ZAMBRONE,38.7125681543696,15.9762378441941
STAZ.NE CESSANITI IONADI,38.6444579221396,16.0542085008443
STAZ.NE DI MILETO,38.6132877060665,16.0709807342817
STEFANACONI,38.6735633464014,16.1212623343106
STINCHI,38.5737802547271,16.1434258507469
STOCCATA ARUSO,38.5402081154395,16.2101432167076
STRADA CAVA,38.632102418197,16.1088632128785
STRADA DEI PIOPPI,38.6252393381894,15.978108299661
STRAMANDINOLI,38.5697611156829,16.1815288804238
STRAMBO,38.5744863033823,16.0637691550919
SULLI,38.5801339297578,16.1616770705161
SURICELLO,38.5671456527523,16.1278479059149
SURUVARERA,38.6107298845791,16.0347638776862
T. AGNONE,38.5768009397028,15.9065504190046
T. ALLARO,38.5122560446718,16.329611409474
T. AMELLO,38.557353401443,16.1805108690981
T. ANCINALE,38.5666996787593,16.3291679951405
T. ANNESCIA,38.4699066369912,16.2921181515046
T. ARMO,38.6750292347229,15.9339178893951
T. AUCELLA,38.4557380145865,16.3537632974362
T. BRIZZI,38.6640799687014,16.2479249262694
T. BRIZZI,38.6648597521821,16.2270311992595
T. BURMARIA,38.6693126548595,15.9056813523809
T. CALDERARO,38.5640129436865,16.0348166706517
T. CANDRILLI,38.6998516790641,16.0779399551571
T. CANNALIA,38.7461327420939,16.2584310395863
T. CAPONA,38.7715429741699,16.3293700389537
T. CARIDI,38.5988098461853,16.2613890008808
T. CERASIA,38.6189284712459,16.2684264662116
T. CERESIO,38.6260582309423,16.2674377836536
T. CIRASARA,38.6000048696082,15.8831512709072
T. DELLA GRAZIA,38.6718753657552,15.9145074841252
T. FALLA,38.6785075314126,16.248738759957
T. FALLA,38.6661035077231,16.2947175983871
T. FILESA,38.5508915422758,16.1525306799167
T. FURNO,38.5685842394681,16.3346090284756
T. GATTOTA,38.5506124294051,15.9553151966809
T. INCINERATO,38.5535968065852,16.0417711246092
T. LANZO,38.6287528180507,16.248989495545
T. LANZO,38.6360438264343,16.2327783650145
T. LAVATORE,38.5741836102979,16.0573935619177
T. LUMIA,38.6724704888392,15.9005252584726
T. MAMMELLA,38.5364836998509,16.0119569195521
T. MARANINA,38.4722786846788,16.2688559611879
T. MAREPOTAMO,38.5497447805705,16.1296530692261
T. MELANDA,38.5183877170826,16.1741732432952
T. MORANO,38.5824559385019,16.1933209183562
T. MORTE,38.5808007022317,15.9067384675132
T. MUSA,38.6375977873477,16.2485455488324
T. PETRIANO,38.5510165992572,16.2245312916367
T. PETRIANO,38.5688898001159,16.1812506024867
T. PRECARITI,38.4601144985703,16.3618105814543
T. QUERCIA,38.7988621193543,16.2214840828308
T. RACI,38.6912395573812,15.9984499788491
T. S. ANNA,38.7065309851147,16.0951991855678
T. S. MARINO,38.5536340410098,15.9907710836628
T. S. MARINO,38.5350683852693,15.9973085869938
T. SCARDIZZI,38.6652442561196,16.272013284467
T. TAVOLARA,38.5765192313844,15.9849091786213
T. TRE CARLINI,38.8192118906347,16.2669385234552
T. VALLE,38.5863388846465,15.8920198503923
T. VITRANU,38.6615661176797,15.8780451490008
T. VITRANU,38.6697699198437,15.8740071837077
T. ZUMBELIA,38.638739168328,16.3218230440911
T.PA BIANCA,38.7179508724493,16.1420388368216
T.RE DI IOPPOLO,38.5662865945286,15.9015744183105
T.RE DI POLISANO,38.5978012513999,15.9853377621402
T.RE MARINO,38.6527876952855,15.8439095735098
T.RE S. IRENE,38.7242978307424,16.0000832632392
T.RE S. MARIA,38.61395779947,15.841191682967
TACCONE,38.6607825638217,15.8899083268055
TACCONE,38.664865396307,16.1005869948264
TALANO,38.612136210225,15.9123128269324
TARGANI,38.7853241779443,16.3219467369718
TAVONE,38.6845256933148,15.9728214141643
TELEGR.O DIR,38.7944581826556,16.2586011132163
TELIA,38.6757961597113,16.2827759331874
TERRA ROSSA,38.5790576635486,16.3185241545828
TERRATOLA,38.7001219757768,16.2848548507836
TIGANI,38.5501944524622,16.3192705480342
TIGIANI,38.5858763678485,16.2387972957272
TIMP.NE BORGISI,38.5645586586809,16.0918011757581
TIMP.NE CANDELA,38.5715405005598,16.1355960896951
TIMP.NE CUCULLARO,38.7532832903126,16.3335883660035
TIMP.NE DEL MONACO,38.6009887140501,16.381257864646
TIMP.NE DI MALOPERA,38.7332741190402,16.2930647463584
TIMP.NE ROTA,38.6349403365505,16.1878831690948
TIMP.NE S. DOMENICA,38.5755542613119,16.1315036457913
TIMP.NE TONDO,38.5852618933211,16.3253195760321
TIMP.NE ZACCANO,38.5595890060314,16.1358096910711
TIMPONE APORTO,38.6665263992214,15.924324582391
TIMPONE DEI MOLINI,38.4950886619312,16.3383429724706
TIMPONE DEL LUPO,38.4839808139036,16.336463612288
TIMPONE FOLEA,38.6379131121376,16.2281226631738
TIMPONE PALOMBARO,38.5990089955625,16.2231071568267
TIMPONELLA,38.775820963209,16.2478669634518
TIRANELLO,38.5884221742684,16.2835274166145
TIRO A SEGNO,38.6752842028695,16.109011880506
TOBONI,38.5706667392667,15.9670023508341
TONNARA,38.6891810040096,15.9368498687746
TONNO,38.7438942568495,16.275398291086
TORNISI,38.5489451624797,16.161634032874
TORRE,38.548490581476,15.9480575475976
TORRE,38.572561300417,15.9243590276646
TORRE BARATTA,38.5670174453369,15.9482206020461
TORRE DI CAMPO,38.5622014195884,16.0058900004045
TORRE DON PEPPE,38.6728726680221,16.2473074158517
TORRE GALLO,38.6449705416193,15.9356648808489
TORRE LEPO,38.6299490280578,16.207147060006
TORRE MASDEA,38.8002017296005,16.2346346840088
TORRE VECCHIA,38.8060409532857,16.2312229407037
TORRENTE FALLA,38.7005984622322,16.2458225177724
TORRETTA,38.5767815402192,16.0195248775272
TORRIGLIA,38.5909848184918,15.9181881046864
TOSCANO,38.5428533539743,16.1048406947513
TRAPP.TO PRESUA,38.575248912851,16.0060604605046
TRAPPETO TORALDO,38.5652133966115,16.0077455343439
TRE CROCI,38.6513721126452,16.3107014955861
TRE CROCI,38.79137842096,16.3378903614991
TRE CROCI,38.754603854796,16.3140606392597
TRE VALLONI,38.5696668818094,16.080296403536
TREMISI,38.5721497678,16.0904811712082
TREMOLA,38.6047282741222,16.3227836038196
TRENTOLARI,38.4844174017404,16.3210168601964
TRIARI,38.6902256895035,16.3356820839841
TRIGNE,38.6792173833296,16.3010007952262
TRINCIOPOLO,38.7234656847708,16.2712619776194
TRIPARNI,38.680921444842,16.0668146590707
TROPEA,38.6767009361092,15.8964856921026
TROTTA,38.6333452078675,15.8382357309046
TUCHERA,38.6409231184739,15.9657511498115
TUONO,38.6308390910691,15.8383559000828
TURCHINA,38.6389466245366,16.1793549835272
TUVOLO,38.7118283519921,16.0431207441586
ULMO,38.7121760182033,16.0138427690994
UMBRI,38.7915585730759,16.3292121300761
UMBRO,38.5538735894933,16.2416103284195
UOMO MORTO,38.4998174561012,16.2266454208925
V. AGUGLIA,38.6657455946217,16.3314111408556
V. CHINDILLI,38.5867468527221,16.3561625458608
V. COLICELLO,38.6275205615396,16.3431335915996
V. CUCUZZARA,38.6195318749305,16.3482338799063
